BusStopCode,Description,Latitude,Longitude,Location
1012,Hotel Grand Pacific,1.29684825487647,103.85253591654006,Hotel Grand Pacific 01012
1013,St. Joseph's Ch,1.29770970610083,103.8532247463225,St. Joseph's Ch 01013
1019,Bras Basah Cplx,1.29698951191332,103.85302201172507,Bras Basah Cplx 01019
1029,Opp Natl Lib,1.2966729849642,103.85441422464268,Opp Natl Lib 01029
1039,Bugis Cube,1.29820784139683,103.85549139837408,Bugis Cube 01039
1059,Bugis Stn Exit B,1.30075679526626,103.85611040457584,Bugis Stn Exit B 01059
1109,Queen St Ter,1.30358577565355,103.85650372998224,Queen St Ter 01109
1112,Opp Bugis Stn Exit C,1.30009212839081,103.85520027125814,Opp Bugis Stn Exit C 01112
1113,Bugis Stn Exit A,1.30117297541547,103.8561140106393,Bugis Stn Exit A 01113
1119,Aft Bugis Stn Exit C,1.2996041093804,103.85512934079571,Aft Bugis Stn Exit C 01119
1121,Stamford Pr Sch,1.30393809691048,103.85867999243207,Stamford Pr Sch 01121
1129,Opp Stamford Pr Sch,1.30350269187301,103.85864530718491,Opp Stamford Pr Sch 01129
1139,Parkview Sq,1.30033057855542,103.857160806659,Parkview Sq 01139
1211,Opp Blk 461,1.30551803523268,103.8605449516032,Opp Blk 461 01211
1219,Blk 461,1.30526598535719,103.86072019914616,Blk 461 01219
1229,Bef Sultan Mque,1.30337552638813,103.85963089198265,Bef Sultan Mque 01229
1231,Opp Textile Ctr,1.3032499999752,103.8610830559663,Opp Textile Ctr 01231
1239,Sultan Plaza,1.30291236608351,103.86161817611134,Sultan Plaza 01239
1311,Lavender Stn Exit B,1.3070916463394,103.86219695240972,Lavender Stn Exit B 01311
1319,Lavender Stn Exit A/ICA,1.30757426746418,103.86325596123476,Lavender Stn Exit A/ICA 01319
1329,"Blk 8, North Bridge",1.30495670239172,103.86363028484124,"Blk 8, North Bridge 01329"
1339,Bef Crawford Bridge,1.30774601733202,103.8642627465441,Bef Crawford Bridge 01339
1341,Southbank,1.30647555600578,103.86452527798744,Southbank 01341
1349,Opp Blk 4,1.30568635716829,103.86543994417885,Opp Blk 4 01349
1411,Opp St. John HQ,1.30211332865049,103.86295598167332,Opp St. John HQ 01411
1419,St. John HQ,1.3020199999911,103.86326333301204,St. John HQ 01419
1421,Opp Golden Mile Cplx,1.30338444400173,103.8648388889864,Opp Golden Mile Cplx 01421
1429,Golden Mile Cplx,1.3032136089394,103.86501584807765,Golden Mile Cplx 01429
1511,Opp The Gateway,1.29919826103807,103.85864518302436,Opp The Gateway 01511
1519,The Gateway,1.29907492488417,103.8589102973441,The Gateway 01519
1521,Opp Plaza Parkroyal,1.30088304437602,103.86066098182194,Opp Plaza Parkroyal 01521
1529,Plaza Parkroyal,1.30041667676526,103.86044115259938,Plaza Parkroyal 01529
1541,Bugis Stn Exit D,1.29886465442254,103.85734583628746,Bugis Stn Exit D 01541
1549,Opp Duo Residences,1.30069868861162,103.85873120467068,Opp Duo Residences 01549
1559,Landmark Village Hotel,1.30168731070562,103.85752923961614,Landmark Village Hotel 01559
1611,Aft Raffles Hotel,1.29527259171342,103.85533686181174,Aft Raffles Hotel 01611
1619,Esplanade Stn Exit F,1.29428694178246,103.85503809424232,Esplanade Stn Exit F 01619
1621,Opp Shaw Twrs,1.29695888888745,103.85655611109846,Opp Shaw Twrs 01621
1629,Shaw Twrs,1.297085,103.856894,Shaw Twrs 01629
1631,Aft Beach Rd,1.29693614589482,103.85580555528075,Aft Beach Rd 01631
1639,Bef Beach Rd,1.29738750001468,103.85557583297624,Bef Beach Rd 01639
2029,Aft Esplanade Stn Exit D,1.290106,103.85464,Aft Esplanade Stn Exit D 02029
2049,Raffles Hotel,1.29452091230981,103.85402155505172,Raffles Hotel 02049
2051,The Float @ Marina Bay,1.2895030556082,103.85903388899315,The Float @ Marina Bay 02051
2061,The Esplanade,1.2899638888957,103.85640388886262,The Esplanade 02061
2089,Promenade Stn/Pan Pacific,1.29152694444975,103.8592061110504,Promenade Stn/Pan Pacific 02089
2099,Marina Ctr Ter,1.29147264805943,103.8614855838078,Marina Ctr Ter 02099
2101,Aft S'pore Flyer,1.28938483786533,103.86183148116277,Aft S'pore Flyer 02101
2111,Esplanade Bridge,1.29095592348389,103.85453419435228,Esplanade Bridge 02111
2119,Opp War Memorial Pk,1.29184407356581,103.85534334305083,Opp War Memorial Pk 02119
2141,Suntec Twr Two,1.29576571603037,103.85933814632858,Suntec Twr Two 02141
2149,Suntec Twr Three,1.29560459817725,103.85955533029184,Suntec Twr Three 02149
2151,Suntec Convention Ctr,1.29317776320814,103.85784623004032,Suntec Convention Ctr 02151
2159,Opp Suntec Convention Ctr,1.29360811227161,103.85840672828635,Opp Suntec Convention Ctr 02159
2161,Promenade Stn,1.29268553508737,103.86093156188176,Promenade Stn 02161
2169,Promenade Stn Exit B,1.29333836780589,103.86070849052751,Promenade Stn Exit B 02169
2171,Opp The Ritz-Carlton,1.29070000003898,103.86092194446034,Opp The Ritz-Carlton 02171
2181,Supreme Ct,1.28947444402148,103.85098166700016,Supreme Ct 02181
3011,Fullerton Sq,1.28561840945474,103.85342223246428,Fullerton Sq 03011
3019,OUE Bayfront,1.284245000013,103.853108055996,OUE Bayfront 03019
3021,Prudential Twr,1.28255524603003,103.84998903789258,Prudential Twr 03021
3031,Raffles Pl Stn Exit F,1.28207492207952,103.85086074925066,Raffles Pl Stn Exit F 03031
3041,Telok Ayer Stn Exit A,1.28179509394707,103.84893207391676,Telok Ayer Stn Exit A 03041
3059,One Raffles Quay,1.281111,103.851461,One Raffles Quay 03059
3071,OPP SO SOFITEL S'PORE,1.27990609626764,103.8494003042448,OPP SO SOFITEL S'PORE 03071
3111,Aft Capital Twr,1.2778259536079,103.8481011719729,Aft Capital Twr 03111
3129,UIC Bldg,1.27807003532092,103.84956718123824,UIC Bldg 03129
3151,Opp GB Bldg,1.27892124625262,103.84776234627124,Opp GB Bldg 03151
3217,Opp AXA Twr,1.27552218897645,103.8479443674916,Opp AXA Twr 03217
3218,Opp MAS Bldg,1.2740788888387,103.84687388890411,Opp MAS Bldg 03218
3222,Hub Synergy Pt,1.27397836925637,103.84489562922414,Hub Synergy Pt 03222
3223,Tanjong Pagar Stn Exit C,1.2757033952327,103.84632468221952,Tanjong Pagar Stn Exit C 03223
3239,Shenton Way Ter,1.27464226961973,103.84756721372408,Shenton Way Ter 03239
3241,Mapletree Anson,1.27456,103.84537,Mapletree Anson 03241
3331,Bef Marina Gdns Dr,1.27663307202767,103.86076808024792,Bef Marina Gdns Dr 03331
3339,Aft Marina Gdns Dr,1.27498516412784,103.85950016250489,Aft Marina Gdns Dr 03339
3341,Bef Gdns by the Bay,1.27959780011944,103.8643376844082,Bef Gdns by the Bay 03341
3349,Aft Gdns by the Bay,1.27965600609923,103.8647780795552,Aft Gdns by the Bay 03349
3361,GARDENS BY THE BAY STN EXIT 2,1.279917,103.868895,GARDENS BY THE BAY STN EXIT 2 03361
3369,GARDENS BY THE BAY STN EXIT 1,1.27960772061959,103.8698744774074,GARDENS BY THE BAY STN EXIT 1 03369
3371,Gdns by the Bay,1.28066479303461,103.86626955523418,Gdns by the Bay 03371
3381,The Sail,1.28162601329006,103.85306513725683,The Sail 03381
3391,Marina Bay Financial Ctr,1.28037660340352,103.85498006767988,Marina Bay Financial Ctr 03391
3411,Opp Marina Sth Pier Stn,1.27159299884076,103.86300900488229,Opp Marina Sth Pier Stn 03411
3419,Marina Sth Pier Stn,1.27127698470973,103.86297693157816,Marina Sth Pier Stn 03419
3421,Marina Bay Cruise Ctr,1.26694090294712,103.85964778134668,Marina Bay Cruise Ctr 03421
3501,Marina Bay Sands Theatre,1.28500467671367,103.8606110538643,Marina Bay Sands Theatre 03501
3509,Bayfront Stn Exit B/MBS,1.28314999997332,103.86004388891767,Bayfront Stn Exit B/MBS 03509
3511,Aft Bayfront Stn Exit E,1.28194779470571,103.85897064872482,Aft Bayfront Stn Exit E 03511
3519,Bayfront Stn Exit A,1.28124500000125,103.85884799997385,Bayfront Stn Exit A 03519
3529,Downtown Stn,1.27939957419063,103.85278769921705,Downtown Stn 03529
3539,Marina Bay Stn,1.2775330547661,103.85561610012866,Marina Bay Stn 03539
3549,Shenton Way Stn Exit 3,1.277728,103.85045,Shenton Way Stn Exit 3 03549
3579,Opp Downtown Stn,1.278832,103.852918,Opp Downtown Stn 03579
4019,OPP BENCOOLEN STN EXIT B,1.29807216909408,103.84975607305785,OPP BENCOOLEN STN EXIT B 04019
4029,BEF BENCOOLEN STN EXIT A,1.29948166696821,103.8509266670124,BEF BENCOOLEN STN EXIT A 04029
4111,Capitol Bldg,1.29395444170081,103.85139096636622,Capitol Bldg 04111
4121,SMU,1.29618544092334,103.84958029974612,SMU 04121
4142,Armenian Ch,1.2930982644668,103.84965994500728,Armenian Ch 04142
4143,Stamford Ct,1.29411640848293,103.85020606905503,Stamford Ct 04143
4149,Grand Pk City Hall,1.29276132399953,103.84983741344308,Grand Pk City Hall 04149
4151,Cath Of The Good Shepherd,1.29533777799211,103.8511397219812,Cath Of The Good Shepherd 04151
4159,Aft Chijmes,1.29489484954945,103.85108138663934,Aft Chijmes 04159
4167,City Hall Stn Exit B,1.29250006522444,103.85145315468638,City Hall Stn Exit B 04167
4168,Aft City Hall Stn Exit B,1.29208221483052,103.85125994680256,Aft City Hall Stn Exit B 04168
4179,Aft Bras Basah Stn Exit A,1.29647916306741,103.85147164487202,Aft Bras Basah Stn Exit A 04179
4211,Clarke Quay,1.29043611099357,103.84712444398056,Clarke Quay 04211
4219,Opp Clarke Quay,1.29096802754795,103.84686777836988,Opp Clarke Quay 04219
4222,Clarke Quay Stn Exit E,1.28898962180798,103.84708976365567,Clarke Quay Stn Exit E 04222
4223,Old Hill St Police Stn,1.29084476137495,103.84857901022669,Old Hill St Police Stn 04223
4229,High St Ctr,1.29044830830726,103.84875123545264,High St Ctr 04229
4239,Opp Clarke Quay Stn,1.28882717929599,103.8474938118651,Opp Clarke Quay Stn 04239
4249,Opp The Treasury,1.29043039362749,103.850262165082,Opp The Treasury 04249
4251,Opp High St Ctr,1.28973833297563,103.84888472198024,Opp High St Ctr 04251
4311,Aft River Valley Rd,1.29464575337351,103.8439214229312,Aft River Valley Rd 04311
4321,UE Sq,1.2921400077773,103.8430364619106,UE Sq 04321
4329,Opp UE Sq,1.29197057108024,103.84328384973516,Opp UE Sq 04329
4331,BEF FORT CANNING STN,1.29183939431601,103.84504089382705,BEF FORT CANNING STN 04331
4339,FORT CANNING STN EXIT B,1.29221099996741,103.8450050000296,FORT CANNING STN EXIT B 04339
5012,Bef Pearl'S Hill Terr,1.28154583300728,103.840877221995,Bef Pearl'S Hill Terr 05012
5013,Chinatown Stn Exit C,1.28406979945936,103.84299874303984,Chinatown Stn Exit C 05013
5019,Aft Duxton Plain Pk,1.28118388885484,103.84105000000471,Aft Duxton Plain Pk 05019
5022,Aft Chinatown Stn Exit D,1.28571089865595,103.84437203405348,Aft Chinatown Stn Exit D 05022
5023,Opp Hong Lim Pk,1.28692928357498,103.84540375642476,Opp Hong Lim Pk 05023
5029,Boat Quay,1.28712283362119,103.84819780822524,Boat Quay 05029
5039,New Bridge Ctr,1.28293819129834,103.84254276754574,New Bridge Ctr 05039
5049,Chinatown Stn Exit E,1.28531114761754,103.84455070696784,Chinatown Stn Exit E 05049
5059,Hong Lim Pk,1.28676420118491,103.84575036447065,Hong Lim Pk 05059
5069,OUTRAM PK STN EXIT 4,1.28027629959632,103.84029791443083,OUTRAM PK STN EXIT 4 05069
5129,Opp One Upp Pickering,1.28601166699569,103.84634666701145,Opp One Upp Pickering 05129
5131,Opp Hong Lim Cplx,1.284073056,103.8453381,Opp Hong Lim Cplx 05131
5189,Opp Sri Mariamman Tp,1.2820913960391,103.84528061446952,Opp Sri Mariamman Tp 05189
5199,Opp Hong Lim Cplx,1.28451455846092,103.84666049314173,Opp Hong Lim Cplx 05199
5239,Bef The Pinnacle@Duxton,1.27854113014976,103.8415105424013,Bef The Pinnacle@Duxton 05239
5241,Opp Blk 333,1.28071988238536,103.84227488654868,Opp Blk 333 05241
5259,OPP MAXWELL STN EXIT 3,1.27979447837032,103.84262707605176,OPP MAXWELL STN EXIT 3 05259
5269,MAXWELL STN EXIT 2,1.280894,103.844567,MAXWELL STN EXIT 2 05269
5271,Opp Fairfield Meth Ch,1.27975329525167,103.84382212419122,Opp Fairfield Meth Ch 05271
5319,OCBC Ctr,1.284437,103.849114,OCBC Ctr 05319
5411,Tg Pagar Plaza,1.27519165673078,103.84309190393884,Tg Pagar Plaza 05411
5419,The Amara,1.27470669455555,103.84318683838887,The Amara 05419
5421,Aft Craig Rd,1.27777470568529,103.84346347289252,Aft Craig Rd 05421
5429,Bef Craig Rd,1.27769413050075,103.84370654372523,Bef Craig Rd 05429
5431,TOWER 15,1.27408,103.8420461,TOWER 15 05431
5519,Blk 1G,1.27553472200739,103.84112694400494,Blk 1G 05519
5521,Maritime Hse,1.27676861098316,103.84059222200348,Maritime Hse 05521
5629,Opp Southpoint,1.273211389,103.84187,Opp Southpoint 05629
5631,Blk 16,1.27346055934188,103.84034718190608,Blk 16 05631
5641,Bef Cantonment Rd,1.27272393115133,103.84140618785226,Bef Cantonment Rd 05641
5649,Opp Customs Port Br HQ,1.2723842122117,103.84093912218094,Opp Customs Port Br HQ 05649
5651,Opp Fuji Xerox Twrs,1.273218611,103.8430731,Opp Fuji Xerox Twrs 05651
6011,OUTRAM PK STN EXIT 7,1.28165999996967,103.83801388886192,OUTRAM PK STN EXIT 7 06011
6029,OUTRAM PK STN EXIT 1,1.28177041153491,103.8383828488293,OUTRAM PK STN EXIT 1 06029
6031,Opp Blk 13 Chin Swee Rd,1.28607055552165,103.83879166662209,Opp Blk 13 Chin Swee Rd 06031
6039,"Blk 8, Chin Swee Rd",1.28705997883119,103.83962555611691,"Blk 8, Chin Swee Rd 06039"
6049,BEF OUTRAM FLYOVER,1.28474856880259,103.83517705055232,BEF OUTRAM FLYOVER 06049
6051,Blk 55,1.28475980959972,103.83405671725488,Blk 55 06051
6069,Aft Furama RiverFront,1.28623157720487,103.83496162445664,Aft Furama RiverFront 06069
6071,HAVELOCK STN EXIT 2,1.28685859481289,103.83360028266564,HAVELOCK STN EXIT 2 06071
6081,HAVELOCK STN EXIT 3,1.28837086415387,103.83349881780524,HAVELOCK STN EXIT 3 06081
6129,Grand Copthorne Hotel,1.29078162052352,103.83440916705554,Grand Copthorne Hotel 06129
6131,Aft Blk 87,1.29152472200833,103.83222750001508,Aft Blk 87 06131
6141,HAVELOCK STN EXIT 5,1.28963300933974,103.83381241921823,HAVELOCK STN EXIT 5 06141
6149,HAVELOCK STN EXIT 4,1.28984045728104,103.83411526676927,HAVELOCK STN EXIT 4 06149
6151,Hotel Miramar,1.28870976841461,103.83737276969174,Hotel Miramar 06151
6159,Opp Hotel Miramar,1.28909385421188,103.8368794036018,Opp Hotel Miramar 06159
6161,Blk 2,1.28901705678419,103.83994286096711,Blk 2 06161
6169,River Pl Condo,1.28937078931125,103.83998944937588,River Pl Condo 06169
6171,Opp State Ct,1.286101944,103.8425356,Opp State Ct 06171
6189,Ctrl Sq,1.28779136477868,103.8432942808956,Ctrl Sq 06189
7011,Peace Ctr,1.30099699058522,103.8498101874305,Peace Ctr 07011
7021,Selegie Ctr,1.30324521574524,103.84995776766849,Selegie Ctr 07021
7031,Tekka Ctr,1.30572083298412,103.85120583303193,Tekka Ctr 07031
7111,Broadway Hotel,1.30879366465919,103.8531751994068,Broadway Hotel 07111
7211,Aft Farrer Pk Stn Exit G,1.31313747728456,103.8563561439714,Aft Farrer Pk Stn Exit G 07211
7221,Sri Vadapathira K Tp,1.314966,103.857819,Sri Vadapathira K Tp 07221
7231,Bef Tai Hoe Hotel,1.309658889,103.8573711,Bef Tai Hoe Hotel 07231
7241,Bef S'Goon Rd,1.31557142083242,103.85900616698896,Bef S'Goon Rd 07241
7249,Aft Kempas Rd,1.315368056,103.8594669,Aft Kempas Rd 07249
7319,Aft Allenby Rd,1.31038833299803,103.85870666696984,Aft Allenby Rd 07319
7329,Hoa Nam Bldg,1.31284472583438,103.85989088288474,Hoa Nam Bldg 07329
7331,Aft King George's Ave,1.30824994545395,103.8589096071918,Aft King George's Ave 07331
7351,ARC 380,1.31351833300073,103.86054527803076,ARC 380 07351
7359,OPP ARC 380,1.31368253065979,103.8607145180712,OPP ARC 380 07359
7361,Bef Kallang Bahru,1.31167636068313,103.86189483728585,Bef Kallang Bahru 07361
7369,Aft Kallang Bahru,1.31140805601851,103.86237888899062,Aft Kallang Bahru 07369
7371,Aft Kallang Rd,1.30950750000455,103.86350138902452,Aft Kallang Rd 07371
7379,Aperia/Bef Kallang Rd,1.31017336740849,103.86338225534828,Aperia/Bef Kallang Rd 07379
7419,Opp Veerasamy Rd,1.30653024120879,103.8561630249311,Opp Veerasamy Rd 07419
7517,IBIS S'PORE ON BENCOOLEN,1.30145216158073,103.85247781934106,IBIS S'PORE ON BENCOOLEN 07517
7518,OPP NAFA CAMPUS 3,1.30095828368506,103.85211175034802,OPP NAFA CAMPUS 3 07518
7529,JLN BESAR STN EXIT A,1.30431906266143,103.85501564257024,JLN BESAR STN EXIT A 07529
7531,Rochor Stn,1.30365644370093,103.8525732326128,Rochor Stn 07531
7539,Opp Rochor Stn,1.30461300741211,103.8520009720951,Opp Rochor Stn 07539
7551,Fu Lu Shou Cplx,1.30171975809706,103.8546132267025,Fu Lu Shou Cplx 07551
7561,Bef Waterloo St,1.29945446471936,103.85267983857251,Bef Waterloo St 07561
7569,Aft Waterloo St,1.29949531348401,103.85301395376231,Aft Waterloo St 07569
7571,SUNSHINE PLAZA,1.30063444632288,103.851140093146,SUNSHINE PLAZA 07571
7589,Ch of Our Lady of Lourdes,1.30320609782822,103.85549999983388,Ch of Our Lady of Lourdes 07589
8011,Opp Haw Par Glass Twr,1.29706985017362,103.84361028672502,Opp Haw Par Glass Twr 08011
8019,Aft Haw Par Glass Twr,1.29624633745957,103.84407009228418,Aft Haw Par Glass Twr 08019
8031,Dhoby Ghaut Stn Exit B,1.29831153783592,103.8452569595532,Dhoby Ghaut Stn Exit B 08031
8041,YMCA,1.29811014243867,103.84780636909544,YMCA 08041
8057,Dhoby Ghaut Stn,1.29930997279734,103.84529021429744,Dhoby Ghaut Stn 08057
8058,Aft Dhoby Ghaut Stn,1.2989583431631,103.84654115271174,Aft Dhoby Ghaut Stn 08058
8069,Bencoolen Stn Exit B,1.29821382250893,103.84936128375956,Bencoolen Stn Exit B 08069
8079,Sch of the Arts,1.29921444445586,103.84910329217983,Sch of the Arts 08079
8111,Winsland Hse,1.29986928715834,103.84093746088924,Winsland Hse 08111
8121,Somerset Stn,1.30027569326586,103.83877618459664,Somerset Stn 08121
8137,Orchard Plaza,1.30073968408393,103.84100500816844,Orchard Plaza 08137
8138,Concorde Hotel S'pore,1.3004785730821,103.84184700607597,Concorde Hotel S'pore 08138
9011,Opp Ngee Ann City,1.30211335092372,103.83431672376756,Opp Ngee Ann City 09011
9022,ORCHARD STN EXIT 13,1.30252834773643,103.83239784275958,ORCHARD STN EXIT 13 09022
9023,Opp Orchard Stn/ION,1.30323727330942,103.83254180023424,Opp Orchard Stn/ION 09023
9037,Bef Cairnhill Rd,1.3023400420296,103.83701253388185,Bef Cairnhill Rd 09037
9038,Opp Somerset Stn,1.30154262450563,103.83852481842337,Opp Somerset Stn 09038
9047,Orchard Stn/Tang Plaza,1.30446065207443,103.83294467208566,Orchard Stn/Tang Plaza 09047
9048,Orchard Stn/Lucky Plaza,1.30386684425114,103.83413070051408,Orchard Stn/Lucky Plaza 09048
9059,Somerset Youth Pk,1.30044251755834,103.8362380421602,Somerset Youth Pk 09059
9111,Opp Four Seasons Hotel,1.30453752623147,103.82914529614987,Opp Four Seasons Hotel 09111
9121,Bef Tomlinson Rd,1.30397379238249,103.82699645124522,Bef Tomlinson Rd 09121
9131,OPP ORCHARD BLVD STN,1.30391999998489,103.82333805603096,OPP ORCHARD BLVD STN 09131
9139,ORCHARD BLVD STN EXIT 1,1.303528,103.823585,ORCHARD BLVD STN EXIT 1 09139
9141,British Council,1.30543500002797,103.82177666702268,British Council 09141
9149,Opp British Council,1.30608981381948,103.8212215023314,Opp British Council 09149
9159,Aft Tomlinson Rd,1.30602637557418,103.82568042620603,Aft Tomlinson Rd 09159
9169,Delfi Orchard,1.3070135326348,103.82835507326035,Delfi Orchard 09169
9179,Royal Thai Embassy,1.30587966240898,103.83049004618626,Royal Thai Embassy 09179
9191,Aft Cuscaden Rd,1.30488653118311,103.82549755834486,Aft Cuscaden Rd 09191
9212,Royal Plaza On Scotts,1.30702238421536,103.83265522662566,Royal Plaza On Scotts 09212
9213,Thong Teck Bldg,1.30783805600034,103.83305083303024,Thong Teck Bldg 09213
9219,Far East Plaza,1.30731999685228,103.833160882917,Far East Plaza 09219
10009,Bt Merah Int,1.28210155945393,103.81722480263164,Bt Merah Int 10009
10011,BEF NEIL RD,1.2777380589964,103.83749709165195,BEF NEIL RD 10011
10017,Aft Hosp Dr,1.27832046633393,103.83762574759974,Aft Hosp Dr 10017
10018,OUTRAM PK STN EXIT 6/SGH,1.27900819665099,103.8386036062196,OUTRAM PK STN EXIT 6/SGH 10018
10021,Blk 3,1.27744837946643,103.83838894560752,Blk 3 10021
10041,BEF KAMPONG BAHRU TER,1.27605834770353,103.83519065305671,BEF KAMPONG BAHRU TER 10041
10049,OPP KAMPONG BAHRU TER,1.27623302424393,103.83483786772156,OPP KAMPONG BAHRU TER 10049
10051,Blk 149,1.2774116353284,103.83214410914844,Blk 149 10051
10059,Opp Blk 149,1.27739664167497,103.83275178077876,Opp Blk 149 10059
10061,Blk 140,1.27860472196885,103.82948638898172,Blk 140 10061
10069,Opp Blk 140,1.27855472196877,103.83008250001669,Opp Blk 140 10069
10071,Blk 111,1.28045309423663,103.82638920754816,Blk 111 10071
10079,Blk 201,1.2803950142786,103.82708906887606,Blk 201 10079
10081,Opp Blk 120,1.2822783541702,103.82241744338572,Opp Blk 120 10081
10089,Blk 119,1.28292332245689,103.82165660905856,Blk 119 10089
10091,Bt Merah Town Ctr,1.28394108576437,103.81783962251122,Bt Merah Town Ctr 10091
10099,Opp Bt Merah Town Ctr,1.28420923932422,103.81765723225828,Opp Bt Merah Town Ctr 10099
10101,OPP BT MERAH SEC SCH,1.28506195168861,103.8137833011436,OPP BT MERAH SEC SCH 10101
10109,BT MERAH SEC SCH,1.28535315729277,103.81370529674273,BT MERAH SEC SCH 10109
10111,Opp Blk 28,1.28592835098556,103.80935410958448,Opp Blk 28 10111
10119,Opp Pacific Tech Ctr,1.28598009010704,103.81122515087834,Opp Pacific Tech Ctr 10119
10121,Blk 126 CP,1.28259924598805,103.82890541983912,Blk 126 CP 10121
10129,Blk 121,1.28231999999009,103.8285719444802,Blk 121 10129
10131,Opp Blk 2,1.28619141382394,103.80686549059318,Opp Blk 2 10131
10139,Blk 1 Jln Bt Merah,1.28635135443034,103.8081000223439,Blk 1 Jln Bt Merah 10139
10141,Blk 18,1.28583847140468,103.83238179897587,Blk 18 10141
10149,Blk 1 Tiong Bahru Rd,1.28606797463712,103.83283384311112,Blk 1 Tiong Bahru Rd 10149
10151,Ctrl Green Condo,1.28572048365401,103.8285292287095,Ctrl Green Condo 10151
10161,Opp Tiong Bahru Stn,1.28593135445772,103.82668969231534,Opp Tiong Bahru Stn 10161
10169,Tiong Bahru Stn,1.28599961406266,103.82748123930962,Tiong Bahru Stn 10169
10171,Opp Tiong Bahru Pk,1.28736808047078,103.82346004890805,Opp Tiong Bahru Pk 10171
10179,Tiong Bahru Pk,1.28722333302937,103.82395833301354,Tiong Bahru Pk 10179
10181,BEF AR-RABITAH MQUE,1.28850399420484,103.82109741719866,BEF AR-RABITAH MQUE 10181
10189,Blk 104A CP,1.28858805222806,103.82183192865196,Blk 104A CP 10189
10191,Blk 78,1.28860026020096,103.81903121724014,Blk 78 10191
10199,Delta Swim Cplx,1.28875723330649,103.81936618662203,Delta Swim Cplx 10199
10201,Opp Redhill Stn,1.28928144532567,103.81662854691156,Opp Redhill Stn 10201
10209,Redhill Stn,1.28954631749853,103.81672885450702,Redhill Stn 10209
10211,Porsche Ctr S'pore,1.29075499997303,103.81144166700754,Porsche Ctr S'pore 10211
10219,Opp Motor Image,1.29089526651849,103.81191424883257,Opp Motor Image 10219
10221,Ganges Ctr,1.29032906602668,103.83111793441608,Ganges Ctr 10221
10229,Opp Harvest Mansions,1.29052137840164,103.83178189529583,Opp Harvest Mansions 10229
10231,Blk 51 CP,1.29041850946952,103.8278810014952,Blk 51 CP 10231
10239,Blk 79,1.29060688839488,103.82865297447871,Blk 79 10239
10241,Gan Eng Seng Sec Sch,1.2906166672167,103.82362326803133,Gan Eng Seng Sec Sch 10241
10249,Opp Gan Eng Seng Sec Sch,1.29088138899671,103.82407777797806,Opp Gan Eng Seng Sec Sch 10249
10261,Delta Sports Hall,1.29090335842692,103.82047232884216,Delta Sports Hall 10261
10269,Opp Delta Sports Hall,1.29125331927458,103.82057583280772,Opp Delta Sports Hall 10269
10271,Opp Tanglin View,1.29115999997607,103.81757666701353,Opp Tanglin View 10271
10279,Tanglin View,1.29151373164978,103.81757660887745,Tanglin View 10279
10281,SIS Bldg,1.29153833298318,103.81445166697796,SIS Bldg 10281
10289,Opp SIS Bldg,1.2918699745378,103.81440639448375,Opp SIS Bldg 10289
10291,Bef Dawson Rd,1.29215855273858,103.81065866068086,Bef Dawson Rd 10291
10299,Aft Dawson Rd,1.29233498466278,103.81146486767658,Aft Dawson Rd 10299
10321,Aft Margaret Dr Tanglin Rd,1.29428332949691,103.81587839882768,Aft Margaret Dr Tanglin Rd 10321
10329,Crescent Girls' Sch,1.29364671283262,103.81597460107542,Crescent Girls' Sch 10329
10331,Bef Bt Merah Ctrl,1.28136306628839,103.81834423228644,Bef Bt Merah Ctrl 10331
10339,Aft Bt Merah Ctrl,1.28115835063292,103.81857250844853,Aft Bt Merah Ctrl 10339
10341,Opp Blk 116,1.28484639603431,103.82059301467888,Opp Blk 116 10341
10349,Blk 116,1.284977,103.821011,Blk 116 10349
10351,Blk 95B,1.28675501760897,103.82204990181914,Blk 95B 10351
10359,Opp Blk 95C,1.28723833324362,103.82259298997768,Opp Blk 95C 10359
10361,Cendex Ctr,1.28038092060065,103.82353025808791,Cendex Ctr 10361
10369,Opp Cendex Ctr,1.28037471151153,103.82387343933006,Opp Cendex Ctr 10369
10371,Blk 129,1.28365072319387,103.824502653383,Blk 129 10371
10379,Blk 25B,1.28373603376667,103.82489520929732,Blk 25B 10379
10381,Opp Blk 48,1.28906972186602,103.82559411728036,Opp Blk 48 10381
10389,Blk 48,1.28875832991208,103.82573455047122,Blk 48 10389
10391,Opp Melati Blk 2,1.27627105343758,103.8312563936613,Opp Melati Blk 2 10391
10399,Melati Blk 2,1.27588166292683,103.8301945420522,Melati Blk 2 10399
10401,Shriro Hse,1.28816729863,103.81167850401884,Shriro Hse 10401
10409,Blk 50,1.28788221830638,103.81099317775704,Blk 50 10409
10411,Opp Blk 53,1.28912979528004,103.81280840030112,Opp Blk 53 10411
10419,Blk 52,1.28842024220748,103.81257549749508,Blk 52 10419
10421,Blk 63B,1.288964,103.814975,Blk 63B 10421
10429,Blk 54,1.2892779060127,103.814048054222,Blk 54 10429
10431,ENABLING VILLAGE,1.287195,103.813984,ENABLING VILLAGE 10431
10439,OPP ENABLING VILLAGE,1.28747956947939,103.81418936580334,OPP ENABLING VILLAGE 10439
10441,Opp Blk 44,1.28656898930199,103.8116061687213,Opp Blk 44 10441
10449,Blk 44,1.28666552495266,103.8119537804698,Blk 44 10449
10451,Opp Blk 71,1.28762380319765,103.8172559639682,Opp Blk 71 10451
10459,Blk 72 Redhill Rd,1.28754723360397,103.81639920301684,Blk 72 Redhill Rd 10459
10461,Aft Margaret Dr Kay Siang Rd,1.29680597432594,103.81169140516062,Aft Margaret Dr Kay Siang Rd 10461
10469,Bef Margaret Dr,1.29668400003303,103.81216918970024,Bef Margaret Dr 10469
10471,Bef Tanglin Rd,1.29679993078344,103.81468220659576,Bef Tanglin Rd 10471
10479,Aft Tanglin Rd,1.29668100002552,103.81547381025996,Aft Tanglin Rd 10479
10481,Opp Blk 73,1.28784195484767,103.81797160113337,Opp Blk 73 10481
10489,Blk 73,1.28811638897142,103.81778388900165,Blk 73 10489
10499,KAMPONG BAHRU TER,1.27585400417691,103.83401000002084,KAMPONG BAHRU TER 10499
10501,Blk 104,1.28105845355429,103.82528065411316,Blk 104 10501
10519,Blk 4,1.291728,103.826122,Blk 4 10519
10599,Opp Blk 36,1.28883435010664,103.80924997344988,Opp Blk 36 10599
10651,Blk 161,1.28329993019059,103.81547665017668,Blk 161 10651
10659,Blk 1003,1.28362333298689,103.81472833301792,Blk 1003 10659
11009,Ghim Moh Ter,1.3110673548964,103.78932237623977,Ghim Moh Ter 11009
11019,Bef Blk 2,1.28679632523156,103.80565677295324,Bef Blk 2 11019
11021,Aft Queenstown NPC HQ,1.28941805603102,103.80228694398484,Aft Queenstown NPC HQ 11021
11029,Blk 166,1.29013472201419,103.80202111098816,Blk 166 11029
11031,Opp Queen's Cl,1.29119666696879,103.80045500000118,Opp Queen's Cl 11031
11039,Blk 19,1.29245762862665,103.79998683928974,Blk 19 11039
11041,Aft C'wealth Dr,1.29624499998226,103.79952333299494,Aft C'wealth Dr 11041
11049,Opp Blessed Sacrament Ch,1.2954609366563,103.79952549937242,Opp Blessed Sacrament Ch 11049
11051,Opp Queenstown Polyclinic,1.29872166703909,103.8002979755481,Opp Queenstown Polyclinic 11051
11059,Queenstown Polyclinic,1.29882892782979,103.80097389222824,Queenstown Polyclinic 11059
11061,Opp Queensway Sec Sch,1.30265777802206,103.80118694402536,Opp Queensway Sec Sch 11061
11069,Queensway Sec Sch,1.30236853162324,103.80161762237655,Queensway Sec Sch 11069
11071,Blk 97,1.30621305601609,103.80170944396954,Blk 97 11071
11079,Opp Blk 95,1.305441389003,103.8018525000066,Opp Blk 95 11079
11081,Viz Holland,1.30851972202313,103.80258027799628,Viz Holland 11081
11089,Opp Holland Hill Lodge,1.30946135492693,103.8033408735464,Opp Holland Hill Lodge 11089
11091,Leedon Green,1.31219444050072,103.80367378215983,Leedon Green 11091
11099,Opp Leedon Green,1.31305333300118,103.80437666697586,Opp Leedon Green 11099
11101,Farrer Rd Mkt,1.31614971080385,103.80596012189226,Farrer Rd Mkt 11101
11109,Spanish Village,1.31552472199926,103.80574305602846,Spanish Village 11109
11111,Farrer Rd Stn Exit B,1.31780157259006,103.80771866952544,Farrer Rd Stn Exit B 11111
11119,Farrer Rd Stn Exit A,1.31747833490912,103.80785606728588,Farrer Rd Stn Exit A 11119
11131,Queens Condo,1.2928849988829,103.8070669441734,Queens Condo 11131
11139,Blk 53A CP,1.2931986108138,103.80744694841285,Blk 53A CP 11139
11141,Queenstown Stn Exit A/D,1.29463705145492,103.80582510668432,Queenstown Stn Exit A/D 11141
11149,Queenstown Stn Exit B/C,1.29506407111991,103.80596280094792,Queenstown Stn Exit B/C 11149
11151,Blk 42,1.29863585845076,103.80247592925552,Blk 42 11151
11159,Aft Ch Of Our Saviour,1.29800440816386,103.8036265685558,Aft Ch Of Our Saviour 11159
11161,C'Wealth Stn Exit A/D,1.30213305598263,103.7983908330214,C'Wealth Stn Exit A/D 11161
11169,C'Wealth Stn Exit B/C,1.30270500001823,103.79838166697326,C'Wealth Stn Exit B/C 11169
11171,Opp Blk 7B,1.30535666699303,103.79479722196947,Opp Blk 7B 11171
11179,"Blk 8, C`wealth Ave",1.30627521395682,103.79427940117534,"Blk 8, C`wealth Ave 11179"
11181,Opp Blk 43,1.30722333300814,103.79227638896938,Opp Blk 43 11181
11189,Blk 43,1.30740138898924,103.79254222202354,Blk 43 11189
11191,The Star Vista,1.30801640815091,103.7883731546267,The Star Vista 11191
11199,Blk 15,1.30837970735444,103.78843145303216,Blk 15 11199
11201,CSC Dempsey Clubhse,1.30692642897557,103.81186453577432,CSC Dempsey Clubhse 11201
11209,Opp Peirce Rd,1.30817280849852,103.81038349817638,Opp Peirce Rd 11209
11211,Aft Peirce Rd,1.30838779885113,103.80939522851014,Aft Peirce Rd 11211
11219,Great Eastern Mansions,1.30988506093033,103.80716407830104,Great Eastern Mansions 11219
11221,Lien Twrs,1.310019,103.805506,Lien Twrs 11221
11229,Sommerville Pk,1.31060065879064,103.80522542227166,Sommerville Pk 11229
11231,Aft Hyll on Holland,1.31115316310297,103.80119919777994,Aft Hyll on Holland 11231
11239,Fairlodge,1.31152857401616,103.80165517330278,Fairlodge 11239
11259,Opp Blk 21,1.31119887945564,103.79274002213415,Opp Blk 21 11259
11261,Holland Village,1.31223168432152,103.79444621838488,Holland Village 11261
11269,Opp Holland Village,1.31256112590195,103.79453796697418,Opp Holland Village 11269
11271,Aft East Sussex Lane,1.31473444398294,103.79008416699844,Aft East Sussex Lane 11271
11279,Aft Coronation Rd West,1.31466878886978,103.79069259768109,Aft Coronation Rd West 11279
11281,Aft Tan Boon Chong Ave,1.31622694399746,103.78852194399074,Aft Tan Boon Chong Ave 11281
11289,Opp Tan Boon Chong Ave,1.31618891387774,103.78904342517946,Opp Tan Boon Chong Ave 11289
11291,Cold Storage Jelita,1.31792777802094,103.78592333300938,Cold Storage Jelita 11291
11299,Opp Cold Storage Jelita,1.31826975603165,103.78558843680226,Opp Cold Storage Jelita 11299
11301,Hse No. 578,1.31803972093441,103.78790067716272,Hse No. 578 11301
11309,Hse No. 589,1.31862443850443,103.78842993526158,Hse No. 589 11309
11311,Hse No. 532,1.31989638898836,103.78918694402276,Hse No. 532 11311
11319,Opp Hse No. 516,1.3203063798654,103.78959970624804,Opp Hse No. 516 11319
11321,Opp Regent Villa,1.32123138902898,103.79010361098511,Opp Regent Villa 11321
11329,Regent Villa,1.32236139685053,103.7909809400838,Regent Villa 11329
11331,Opp Dynasty Gdn II,1.32320918827361,103.7914466857562,Opp Dynasty Gdn II 11331
11339,Dynasty Lodge,1.32398638897489,103.79204722198944,Dynasty Lodge 11339
11341,Garlick Ville,1.32551506183496,103.7928279089426,Garlick Ville 11341
11349,Opp Garlick Ville,1.325628,103.79304,Opp Garlick Ville 11349
11351,Blk 13,1.30934571218561,103.78945112775229,Blk 13 11351
11359,Opp Blk 13 Ghim Moh Rd,1.30931022636473,103.78968608347115,Opp Blk 13 Ghim Moh Rd 11359
11361,Buona Vista Stn Exit C,1.30649698638726,103.79058123542396,Buona Vista Stn Exit C 11361
11369,Buona Vista Stn Exit D,1.3063259638605,103.79084827741468,Buona Vista Stn Exit D 11369
11379,Buona Vista Ter,1.30917002463976,103.79236323128612,Buona Vista Ter 11379
11381,Blk 10A,1.30841137865065,103.79328294102336,Blk 10A 11381
11389,Buona Vista CC,1.30906501014268,103.7929321687807,Buona Vista CC 11389
11401,Holland V Stn/Blk12,1.30906722197973,103.79507444402137,Holland V Stn/Blk12 11401
11409,Blk 9,1.3076441670056,103.7943258330196,Blk 9 11409
11419,Holland V Stn Exit A,1.31102981378085,103.79604399202724,Holland V Stn Exit A 11419
11429,Opp Blk 115B,1.30454000002017,103.7983633329984,Opp Blk 115B 11429
11439,Blk 92,1.30606472198412,103.80029777801457,Blk 92 11439
11441,Blk 58,1.29780416697573,103.79754055603178,Blk 58 11441
11449,Blk 37B,1.29840527801842,103.79760333302292,Blk 37B 11449
11451,Blk 72 C`wealth Dr,1.30034972200468,103.79707277801477,Blk 72 C`wealth Dr 11451
11459,Blk 50,1.30097055597804,103.7968519439962,Blk 50 11459
11469,Queensway Sec Sch,1.30113503392421,103.80188584326886,Queensway Sec Sch 11469
11471,Opp The Fisherman Ch,1.29951892595663,103.80315156606572,Opp The Fisherman Ch 11471
11481,Queenstown Lib,1.29811518922625,103.8060054035445,Queenstown Lib 11481
11489,Blk 30,1.298817,103.804395,Blk 30 11489
11491,Opp Queenstown Pr Sch,1.29710202847016,103.8076364994003,Opp Queenstown Pr Sch 11491
11499,Queenstown Pr Sch,1.29685053610951,103.8078866333446,Queenstown Pr Sch 11499
11511,Alexandra Hosp,1.2859468736223,103.80251884462383,Alexandra Hosp 11511
11519,Opp Queensway Shop Ctr,1.28665742231261,103.80334129425304,Opp Queensway Shop Ctr 11519
11521,Anchorpoint,1.2885710102662,103.80543003047168,Anchorpoint 11521
11529,Bef IKEA Ind Bldg,1.28903120647732,103.8060909305284,Bef IKEA Ind Bldg 11529
11531,Opp Lea Hin Hardware Fty,1.29108833302538,103.80753083302794,Opp Lea Hin Hardware Fty 11531
11539,Lea Hin Hardware Fty,1.29117049549107,103.80786180498694,Lea Hin Hardware Fty 11539
11541,Opp Queens,1.29235984013148,103.80578500139798,Opp Queens 11541
11551,Tiong Ghee Tp,1.29126703051517,103.8040959835246,Tiong Ghee Tp 11551
11561,Blk 166,1.29107396045212,103.80247592924285,Blk 166 11561
11579,Blk 158,1.29256489056942,103.80303321252237,Blk 158 11579
11589,Blk 157,1.292991881006,103.80400524995773,Blk 157 11589
11599,Blk 153,1.29420805600708,103.80314888900556,Blk 153 11599
11609,Blk 163,1.29188972202709,103.80212194401808,Blk 163 11609
12021,Bef Moonbeam Wk,1.31907638897016,103.78243055601492,Bef Moonbeam Wk 12021
12029,Opp Moonbeam Wk,1.31958369390988,103.7824392109149,Opp Moonbeam Wk 12029
12031,Pandan Valley Condo,1.3208008510991,103.7796285552172,Pandan Valley Condo 12031
12039,Opp Pandan Valley Condo,1.32104526183447,103.78018998386835,Opp Pandan Valley Condo 12039
12041,Aft Pandan Valley,1.32049172685895,103.77653442120544,Aft Pandan Valley 12041
12049,Opp Pandan Valley,1.32091131971837,103.776558889914,Opp Pandan Valley 12049
12051,Pine Gr Condo,1.3204289505949,103.7750613105408,Pine Gr Condo 12051
12059,Opp Pine Gr Condo,1.32072731097778,103.77515897833835,Opp Pine Gr Condo 12059
12061,Blk 109,1.32178500189496,103.7708733985914,Blk 109 12061
12069,Opp Blk 109A,1.321433056,103.7710419,Opp Blk 109A 12069
12071,Blk 116,1.32402249998323,103.77219388896604,Blk 116 12071
12079,Opp Blk 116,1.32383187575187,103.7726309437574,Opp Blk 116 12079
12081,Maju Camp,1.326468056,103.77543,Maju Camp 12081
12089,Opp Maju Camp,1.326261111,103.7757089,Opp Maju Camp 12089
12091,SIM HQ,1.32918315486756,103.7771471166854,SIM HQ 12091
12099,Opp SIM HQ,1.327838056,103.7767036,Opp SIM HQ 12099
12101,Ngee Ann Poly,1.33243896358504,103.77768506316728,Ngee Ann Poly 12101
12109,Opp Ngee Ann Poly,1.330819444,103.7780086,Opp Ngee Ann Poly 12109
12111,Bef Clementi Rd,1.3191179107649,103.77222980786664,Bef Clementi Rd 12111
12119,Police KINS Trg Camp,1.31964598192789,103.77279266281438,Police KINS Trg Camp 12119
12121,Blk 7,1.31164833301814,103.7871516670319,Blk 7 12121
12129,Blk 3,1.31182111096862,103.78732611099164,Blk 3 12129
12131,Aft Grove Ave,1.3141594439742,103.785061666981,Aft Grove Ave 12131
12139,Aft Mt Sinai Lane,1.31453185933289,103.78504157068625,Aft Mt Sinai Lane 12139
12141,Opp Henry Pk,1.31574389841394,103.78239154819084,Opp Henry Pk 12141
12149,Henry Pk,1.31576900455367,103.78266099158458,Henry Pk 12149
12151,Bef Moonbeam Terr,1.31865064467378,103.78127574919664,Bef Moonbeam Terr 12151
12169,Pandan Valley,1.31916549240365,103.77724170687917,Pandan Valley 12169
12179,Montview,1.31679504687757,103.7769949436126,Montview 12179
12189,Bef Mt Sinai Dr,1.31642693680141,103.78022402243116,Bef Mt Sinai Dr 12189
12199,Opp Village Twr,1.31547998901343,103.77820622498255,Opp Village Twr 12199
12201,Logishub @ Clementi,1.32670826856501,103.76399509585458,Logishub @ Clementi 12201
12209,Opp Logishub @ Clementi,1.32653202760922,103.76429968220567,Opp Logishub @ Clementi 12209
12211,Bef Mt Sinai Wk,1.31721336095462,103.7807071208858,Bef Mt Sinai Wk 12211
13011,NAPIER STN EXIT 2,1.306504,103.81932,NAPIER STN EXIT 2 13011
13019,NAPIER STN EXIT 1,1.3067380217198,103.82013079894884,NAPIER STN EXIT 1 13019
13021,Aft Min Of Foreign Affairs,1.30633972996805,103.81430670816292,Aft Min Of Foreign Affairs 13021
13029,Bef Tyersall Ave,1.30671783282361,103.8145185880206,Bef Tyersall Ave 13029
13031,Opp Chatsworth Rd,1.29912972200223,103.81707388901162,Opp Chatsworth Rd 13031
13039,Bef Chatsworth Rd,1.29981572699945,103.81744265557978,Bef Chatsworth Rd 13039
13041,Aft Camp Rd,1.30242834318416,103.81967634723284,Aft Camp Rd 13041
13049,Bef Rochalie Dr,1.30261671321463,103.82045069624506,Bef Rochalie Dr 13049
13051,Opp Valley Pt,1.29334305906356,103.8263656209055,Opp Valley Pt 13051
13059,Valley Pt,1.29328273601932,103.82663492676832,Valley Pt 13059
13062,STELLAR RV,1.29476674399435,103.82853268161284,STELLAR RV 13062
13063,RV SUITES,1.29534692836828,103.8296430911066,RV SUITES 13063
13069,RV RESIDENCES,1.29488000002792,103.82880805602646,RV RESIDENCES 13069
13071,Riva Lodge,1.296335,103.832936,Riva Lodge 13071
13079,GREAT WORLD STN EXIT 4,1.29612213279141,103.83229211134126,GREAT WORLD STN EXIT 4 13079
13081,St. Thomas Wk,1.2959113890106,103.83624277798825,St. Thomas Wk 13081
13089,Opp St. Thomas Wk,1.29575111096804,103.8360411110338,Opp St. Thomas Wk 13089
13091,AFT KIM YAM RD,1.29593138900491,103.83937805601916,AFT KIM YAM RD 13091
13099,BEF KIM YAM RD,1.29578024244395,103.839612720812,BEF KIM YAM RD 13099
13101,Opp Mohd Sultan Rd,1.29414162678811,103.84231209757696,Opp Mohd Sultan Rd 13101
13109,UE Sq/Bef Mohd Sultan Rd,1.29350944398488,103.8427241670272,UE Sq/Bef Mohd Sultan Rd 13109
13119,Opp Great World City,1.293615,103.832759,Opp Great World City 13119
13121,Opp Great World City,1.29409221679274,103.8308377640795,Opp Great World City 13121
13139,The Trillium,1.2950426189642,103.83205533028764,The Trillium 13139
13141,Aft Zion Full Gospel Ch,1.29763682834545,103.82997986347917,Aft Zion Full Gospel Ch 13141
13159,Bef Zion Full Gospel Ch,1.29796011528522,103.83053183555204,Bef Zion Full Gospel Ch 13159
13169,Grange 80 Condo,1.29910305180416,103.82839289158528,Grange 80 Condo 13169
13171,Gramercy Pk,1.29906809120339,103.82650703485064,Gramercy Pk 13171
13179,Cliveden At Grange,1.29925749997453,103.82665250000116,Cliveden At Grange 13179
13181,Aft One Tree Hill,1.30023223661153,103.82403473005562,Aft One Tree Hill 13181
13189,Bef One Tree Hill,1.30038166697497,103.82414749997376,Bef One Tree Hill 13189
13191,OPP ORCHARD STN EXIT 12,1.302461,103.8297819,OPP ORCHARD STN EXIT 12 13191
13199,AFT ORCHARD STN EXIT 12,1.302127,103.829875,AFT ORCHARD STN EXIT 12 13199
13201,British High Commission,1.30453622259471,103.82209559895128,British High Commission 13201
13209,Opp British High Comsn,1.3040310710651,103.82205605505206,Opp British High Comsn 13209
14009,HarbourFront Int,1.26703502614245,103.81901469907407,HarbourFront Int 14009
14011,Bef Mt Faber Lodge,1.26795444401606,103.8255261109799,Bef Mt Faber Lodge 14011
14019,Opp Mt Faber Lodge,1.2684889249437,103.82571717446542,Opp Mt Faber Lodge 14019
14021,The Pearl @ Mt Faber,1.27132972198996,103.82478361101728,The Pearl @ Mt Faber 14021
14029,Blk 105,1.27247333301883,103.82418777803016,Blk 105 14029
14031,St. Theresa's Convent,1.27624277802151,103.82306027800864,St. Theresa's Convent 14031
14039,Opp St. Theresa's Convent,1.27663637861466,103.82345826768822,Opp St. Theresa's Convent 14039
14041,Blk 54,1.2732727805917,103.81247079301698,Blk 54 14041
14049,Opp Blk 55,1.27324166755337,103.81304231999674,Opp Blk 55 14049
14051,Aft Telok Blangah Hts,1.275847,103.815157,Aft Telok Blangah Hts 14051
14059,Bef Telok Blangah Hts,1.276025,103.815613,Bef Telok Blangah Hts 14059
14061,Opp Former Railway Stn,1.27231269789239,103.83862035734884,Opp Former Railway Stn 14061
14069,Former Railway Stn,1.272538056,103.8364069,Former Railway Stn 14069
14071,Keppel Workshop,1.27220342411953,103.8339025862589,Keppel Workshop 14071
14081,Tg Pagar DP Blk F5,1.270896111,103.8308919,Tg Pagar DP Blk F5 14081
14089,Opp Tg Pagar DP Blk F5,1.27046005041763,103.829792773326,Opp Tg Pagar DP Blk F5 14089
14101,Opp Keppel DP Blk 517,1.26837500002503,103.82825805600972,Opp Keppel DP Blk 517 14101
14109,Keppel DP Blk 517,1.26804601553507,103.8272249050558,Keppel DP Blk 517 14109
14119,Opp VivoCity,1.26592360897281,103.8222827803663,Opp VivoCity 14119
14121,Opp HarbourFront Int,1.26591350024271,103.8192566062178,Opp HarbourFront Int 14121
14129,Harbourfront Stn Exit A,1.26607869101924,103.81977877391114,Harbourfront Stn Exit A 14129
14131,Caribbean at Keppel Bay,1.26740130257465,103.81675441150335,Caribbean at Keppel Bay 14131
14139,Bef Seah Im Rd,1.2686352773503,103.81546952380808,Bef Seah Im Rd 14139
14141,HarbourFront Stn/Vivocity,1.26552421466644,103.82211326846236,HarbourFront Stn/Vivocity 14141
14151,Opp Chr Community Chapel,1.26964765905364,103.8129359412343,Opp Chr Community Chapel 14151
14159,Bef Chr Community Chapel,1.26994046445496,103.81315419081788,Bef Chr Community Chapel 14159
14161,Telok Blangah Stn,1.27075866533548,103.81009913005327,Telok Blangah Stn 14161
14169,Opp Telok Blangah Stn,1.27118550385957,103.80941810434496,Opp Telok Blangah Stn 14169
14171,Opp Yeo's Bldg,1.27145959833005,103.80654857059398,Opp Yeo's Bldg 14171
14179,Yeo's Bldg,1.27188454577735,103.80630000533796,Yeo's Bldg 14179
14189,Aft Alexandra Rd,1.27269303340787,103.80398363214624,Aft Alexandra Rd 14189
14191,Blk 105 CP,1.28121833300943,103.81211444400743,Blk 105 CP 14191
14199,Blk 118,1.28131676735406,103.81275056370772,Blk 118 14199
14201,Blk 110,1.28167307267242,103.80914683892264,Blk 110 14201
14209,Aft Hewlett Packard,1.28176397706369,103.80958869712056,Aft Hewlett Packard 14209
14211,ISS Intl Sch,1.28161168409316,103.80521877469816,ISS Intl Sch 14211
14219,Opp Blk 114,1.28218647936578,103.80684961252828,Opp Blk 114 14219
14221,Opp St. Teresa's Ch,1.27359332247784,103.82893371728431,Opp St. Teresa's Ch 14221
14229,St. Teresa's Ch,1.27370670186653,103.82857888915174,St. Teresa's Ch 14229
14231,Keppel DP Blk 519,1.27100999999332,103.82667222202473,Keppel DP Blk 519 14231
14239,Opp Keppel DP Blk 519,1.27178138152481,103.8271423936315,Opp Keppel DP Blk 519 14239
14241,Opp Blk 1,1.27914353103301,103.8168725087535,Opp Blk 1 14241
14249,Blk 1 Henderson Rd,1.279267,103.8173,Blk 1 Henderson Rd 14249
14259,Blk 11,1.27784501068205,103.81865821941,Blk 11 14259
14269,Blk 10,1.27758480623244,103.81999451121168,Blk 10 14269
14271,Al-Amin Mque,1.27568194286532,103.81914854048932,Al-Amin Mque 14271
14279,Blk 25,1.27591552267791,103.81920892602813,Blk 25 14279
14281,Safra Mt Faber,1.27699671573899,103.81804377490616,Safra Mt Faber 14281
14291,Blk 27,1.27468440821038,103.82132649422054,Blk 27 14291
14299,Opp Blk 27,1.27488820445716,103.82127132943862,Opp Blk 27 14299
14309,Blk 41,1.27128899958763,103.82302593897192,Blk 41 14309
14319,Blk 28,1.273483,103.820637,Blk 28 14319
14329,Blk 67,1.274547,103.809425,Blk 67 14329
14331,Opp Blk 70B,1.27694611110347,103.8110680555484,Opp Blk 70B 14331
14339,Blk 70A,1.276660654539,103.81124504785828,Blk 70A 14339
14341,Opp Blk 59,1.2759338888633,103.81347388887318,Opp Blk 59 14341
14349,Blk 59,1.27579029839825,103.81339813671548,Blk 59 14349
14351,Aft Blk 48,1.27275000000424,103.81036111111034,Aft Blk 48 14351
14359,Blk 50,1.27289055599998,103.81035027797056,Blk 50 14359
14369,The Interlace,1.28153635758335,103.80365927155157,The Interlace 14369
14379,Blk 40,1.27243833303297,103.82379361102517,Blk 40 14379
14381,Blk 109,1.27413014152159,103.82554290547176,Blk 109 14381
14389,Opp Blk 109,1.27428160509375,103.82500895193466,Opp Blk 109 14389
14391,Opp Blk 85,1.27790999999895,103.80858611110148,Opp Blk 85 14391
14399,Blk 85,1.27763662023223,103.80858552939208,Blk 85 14399
14471,Blk 114,1.28201169102423,103.80664978771298,Blk 114 14471
14489,Blk 36 Mkt/FC,1.272377,103.82159,Blk 36 Mkt/FC 14489
14491,Opp Telok Blangah Mkt/FC,1.27278805556375,103.8079488888896,Opp Telok Blangah Mkt/FC 14491
14499,Telok Blangah Mkt/FC,1.27291305557456,103.8078211111249,Telok Blangah Mkt/FC 14499
14501,OPP BLK 91A,1.27687216148362,103.80648081848618,OPP BLK 91A 14501
14509,BLK 92B,1.275651111,103.8068061,BLK 92B 14509
14519,Resorts World Sentosa,1.25352193438281,103.82570322127442,Resorts World Sentosa 14519
14521,Village Hotel,1.256432,103.820911,Village Hotel 14521
14529,Opp Village Hotel,1.253226,103.821217,Opp Village Hotel 14529
14539,Beach Station Bus Terminal,1.251427,103.818545,Beach Station Bus Terminal 14539
15041,Alexandra Retail Ctr,1.274632,103.801892,Alexandra Retail Ctr 15041
15049,Opp Alexandra Retail Ctr,1.274590541032,103.80216344738956,Opp Alexandra Retail Ctr 15049
15051,Alexandra Pt,1.276978,103.8023815,Alexandra Pt 15051
15059,Opp Alexandra Pt,1.27686194443878,103.80270111113056,Opp Alexandra Pt 15059
15071,Opp Lor Sarhad,1.28142472197061,103.78701416697068,Opp Lor Sarhad 15071
15079,Aft Lor Sarhad,1.28077893732919,103.78682778221344,Aft Lor Sarhad 15079
15091,Opp Natl Leadership Inst,1.28290732015735,103.78781105381566,Opp Natl Leadership Inst 15091
15099,Natl Leadership Inst,1.28305620100972,103.78789349372823,Natl Leadership Inst 15099
15101,Opp LP 31,1.28617611097876,103.78562083299964,Opp LP 31 15101
15109,LP 30,1.28591970870508,103.78581066082836,LP 30 15109
15111,Sci Pk 2/The Galen,1.28676277798099,103.78484166701072,Sci Pk 2/The Galen 15111
15119,Opp Sci Pk 2/The Galen,1.28703802671813,103.78501111787652,Opp Sci Pk 2/The Galen 15119
15121,Sci Pk 2/The Gemini,1.2889414210404,103.78373044277906,Sci Pk 2/The Gemini 15121
15129,Opp Sci Pk 2/The Gemini,1.28916467783169,103.78401870729115,Opp Sci Pk 2/The Gemini 15129
15131,Kent Ridge Stn,1.29254343742409,103.78448903561744,Kent Ridge Stn 15131
15139,Kent Ridge Stn Exit B,1.29241000003008,103.7845849999835,Kent Ridge Stn Exit B 15139
15141,Labrador Pk Stn,1.27275860463579,103.80095947823813,Labrador Pk Stn 15141
15149,Opp Labrador Pk Stn,1.27341871854745,103.80055546758588,Opp Labrador Pk Stn 15149
15151,Opp Mapletree Biz City,1.27389192906939,103.7982220898242,Opp Mapletree Biz City 15151
15159,Mapletree Business City,1.27426303773784,103.79839350407596,Mapletree Business City 15159
15161,Opp HarbourSide Bldg 2,1.27443806198132,103.79666055940478,Opp HarbourSide Bldg 2 15161
15169,HarbourSide Bldg 2,1.27481499269165,103.79673994290197,HarbourSide Bldg 2 15169
15181,Opp Ascent,1.29108496444522,103.78541356072029,Opp Ascent 15181
15189,Ascent,1.29079779477822,103.78550255759306,Ascent 15189
15191,Pasir Panjang Stn/Fc,1.27581227029734,103.7926357125798,Pasir Panjang Stn/Fc 15191
15199,Opp Currency Hse,1.27604240853686,103.79318399639808,Opp Currency Hse 15199
15201,Aft Pasir Panjang Stn,1.27680819120105,103.78970861437152,Aft Pasir Panjang Stn 15201
15209,Bef Pasir Panjang Stn,1.27706561928684,103.79023432729964,Bef Pasir Panjang Stn 15209
15211,Opp Pasir View Pk,1.27792442096507,103.78642808592168,Opp Pasir View Pk 15211
15219,Pasir View Pk,1.27818114088895,103.7870103120688,Pasir View Pk 15219
15221,Aft Sth Buona Vista Rd,1.27949923466491,103.78548955401584,Aft Sth Buona Vista Rd 15221
15229,Bef Sth Buona Vista Rd,1.27937638961898,103.78572727156028,Bef Sth Buona Vista Rd 15229
16009,Kent Ridge Ter,1.29425341056334,103.76988323197696,Kent Ridge Ter 16009
16011,Opp Haw Par Villa Stn,1.28277766355314,103.78186930413445,Opp Haw Par Villa Stn 16011
16019,Haw Par Villa Stn,1.28278078585184,103.78217614858188,Haw Par Villa Stn 16019
16021,Opp Gloria Mansion,1.28625793147796,103.779810276938,Opp Gloria Mansion 16021
16029,Gloria Mansion,1.28608472200879,103.78022138902948,Gloria Mansion 16029
16031,Opp S'pore Science Pk II,1.28800629048399,103.77846479413628,Opp S'pore Science Pk II 16031
16039,S'pore Science Pk II,1.28799020188116,103.77872029260048,S'pore Science Pk II 16039
16041,OPP LUXE VILLE,1.2893086506189,103.77660095143266,OPP LUXE VILLE 16041
16049,WHITEHAVEN,1.28910696351866,103.77738952047318,WHITEHAVEN 16049
16051,The Crystal Tabernacle Ch,1.29014861601908,103.77426036615236,The Crystal Tabernacle Ch 16051
16059,Jamiyah Halfway Hse,1.28967266173408,103.77594136139504,Jamiyah Halfway Hse 16059
16061,Opp Heng Mui Keng Terr,1.29046257201356,103.77356171611028,Opp Heng Mui Keng Terr 16061
16069,Heng Mui Keng Terr,1.290648611,103.7736967,Heng Mui Keng Terr 16069
16071,Opp Pasir Panjang PO,1.29129940835907,103.77117221155989,Opp Pasir Panjang PO 16071
16079,Bef Pasir Panjang PO,1.29138264862382,103.77129836184209,Bef Pasir Panjang PO 16079
16081,Aft Palm Green Condo,1.29195777797363,103.76866138900289,Aft Palm Green Condo 16081
16089,Aft Clementi Rd,1.29201138346787,103.7690842071612,Aft Clementi Rd 16089
16091,Opp SIT Dover,1.299478,103.779229,Opp SIT Dover 16091
16099,SIT Dover,1.30061249997689,103.77815138886749,SIT Dover 16099
16101,Inst Of Micro-Electronics,1.28923831874246,103.77969239279668,Inst Of Micro-Electronics 16101
16109,The Alpha,1.28911169277414,103.77950843257454,The Alpha 16109
16111,Aries,1.28700981956328,103.7828311158184,Aries 16111
16119,Teletech Pk,1.28697650703193,103.78260551222012,Teletech Pk 16119
16121,Galen,1.28651130049582,103.78345136824991,Galen 16121
16131,Opp Kent Ridge Ter,1.29487639088562,103.76935201010454,Opp Kent Ridge Ter 16131
16139,Bef Kent Ridge Ter,1.29537944399618,103.76974861100446,Bef Kent Ridge Ter 16139
16141,Tentera Diraja Mque,1.29786833526113,103.769595236506,Tentera Diraja Mque 16141
16149,SDE3,1.29781833402646,103.76994027003138,SDE3 16149
16151,The Japanese Pr Sch,1.30076138899694,103.76993555602373,The Japanese Pr Sch 16151
16159,Coll of Design & Engrg,1.30060333385651,103.77017032679848,Coll of Design & Engrg 16159
16161,Nus Museums,1.30107500001488,103.77369416698464,Nus Museums 16161
16169,NUS Raffles Hall,1.30098333297992,103.77270416701658,NUS Raffles Hall 16169
16171,Yusof Ishak Hse,1.29890150201437,103.77438231319462,Yusof Ishak Hse 16171
16179,Opp Yusof Ishak Hse,1.29898164227099,103.7741773272528,Opp Yusof Ishak Hse 16179
16181,Ctrl Lib,1.29656572408064,103.7725424766424,Ctrl Lib 16181
16189,Information Technology,1.309851,103.768132,Information Technology 16189
16191,Aft Kent Ridge Dr,1.29614307417349,103.7703702141818,Aft Kent Ridge Dr 16191
16199,Aft Architecture Dr,1.29639303583424,103.77072917887465,Aft Architecture Dr 16199
16201,Barossa Gdns,1.28130063164133,103.78410758834184,Barossa Gdns 16201
16209,HORIZON RESIDENCES,1.28159092769912,103.78400650244838,HORIZON RESIDENCES 16209
16211,Wharves Bldg,1.27941861098854,103.78357583299086,Wharves Bldg 16211
16219,Opp Wharves Bldg,1.28015833301245,103.78362361100768,Opp Wharves Bldg 16219
16221,Opp Haw Par Villa Stn,1.28297585453544,103.78118424868649,Opp Haw Par Villa Stn 16221
16229,Haw Par Villa Stn,1.2830090731877,103.78159959377588,Haw Par Villa Stn 16229
16231,Wholesale Ctr,1.28635947284714,103.77852933168336,Wholesale Ctr 16231
16239,Opp Wholesale Ctr,1.28643527800393,103.77893444397212,Opp Wholesale Ctr 16239
16241,Bef West Coast Pk,1.28910305603308,103.773526110968,Bef West Coast Pk 16241
16249,Bef Wholesale Ctr,1.28928277099215,103.7740068298898,Bef Wholesale Ctr 16249
16891,Opp Blk 420A,1.30982186660782,103.76816139829276,Opp Blk 420A 16891
16991,Opp Nan Hua High Sch,1.30777929773028,103.7698858242306,Opp Nan Hua High Sch 16991
17009,Clementi Int,1.31491572870629,103.76412225438476,Clementi Int 17009
17011,Opp Varsity Pk,1.29386900823232,103.76688187253777,Opp Varsity Pk 17011
17019,Varsity Pk,1.2937974792702,103.76705176995324,Varsity Pk 17019
17021,Waseda S Snr High Sch,1.29673702633957,103.76691201794644,Waseda S Snr High Sch 17021
17029,Opp Waseda S Snr High Sch,1.29694570097768,103.76710295331488,Opp Waseda S Snr High Sch 17029
17031,Kent Ridge Sec Sch,1.30172305827699,103.76567633935802,Kent Ridge Sec Sch 17031
17039,Opp Kent Ridge Sec Sch,1.3015316464856,103.76606427132045,Opp Kent Ridge Sec Sch 17039
17041,Blk 726 Clementi West Mkt,1.3042101570614,103.76455953939508,Blk 726 Clementi West Mkt 17041
17049,Blk 601,1.30470638200942,103.76459821893782,Blk 601 17049
17051,Opp Regent Pk,1.31726409983754,103.7624014564888,Opp Regent Pk 17051
17059,Regent Pk,1.31694333299923,103.76170111103328,Regent Pk 17059
17061,Blk 701,1.30775834752765,103.76180505768346,Blk 701 17061
17069,Opp Blk 701,1.3077663717505,103.76214066046376,Opp Blk 701 17069
17071,Blk 513,1.30891781912545,103.76044433406533,Blk 513 17071
17079,Blk 512,1.30968304242083,103.75999360222924,Blk 512 17079
17081,Aft West Coast Highway,1.299503055534,103.76457888891022,Aft West Coast Highway 17081
17091,Aft Clementi Ave 1,1.30904805161426,103.77157783850733,Aft Clementi Ave 1 17091
17099,YALE-NUS COLLEGE,1.3078304704809,103.77165274445558,YALE-NUS COLLEGE 17099
17101,Blk 352,1.31487473157856,103.77179195235536,Blk 352 17101
17109,Opp Blk 352,1.31552714122807,103.77218311911328,Opp Blk 352 17109
17111,Blk 343,1.31779809827118,103.77124639148464,Blk 343 17111
17119,Opp Blk 343,1.31728446989719,103.77193266319904,Opp Blk 343 17119
17121,Blk 610,1.30476410258543,103.76944539352432,Blk 610 17121
17129,Aft NUS High Sch,1.30514136653386,103.76985839745124,Aft NUS High Sch 17129
17131,Clementi Flyover,1.3080413890204,103.7659111110208,Clementi Flyover 17131
17139,Aft Clementi Swim Cplx,1.30903304650021,103.7658699915105,Aft Clementi Swim Cplx 17139
17141,Clementi Stadium,1.3109950000148,103.76349999999258,Clementi Stadium 17141
17149,Blk 426,1.31171515103681,103.76346179699716,Blk 426 17149
17151,Blk 410,1.31169519353522,103.76960993525368,Blk 410 17151
17159,Blk 365,1.311975556,103.7698144,Blk 365 17159
17161,Blk 455,1.31240993603605,103.76685476875124,Blk 455 17161
17169,Blk 329,1.31284527799656,103.76679666702314,Blk 329 17169
17171,Clementi Stn Exit A,1.31497399268611,103.76502698264449,Clementi Stn Exit A 17171
17179,Clementi Stn Exit B,1.31528191560846,103.76536000516928,Clementi Stn Exit B 17179
17181,Opp Blk 317,1.31749570803723,103.7638854582427,Opp Blk 317 17181
17189,Blk 317,1.31790502165515,103.76406408827933,Blk 317 17189
17191,NUS High Sch,1.305669444,103.7698914,NUS High Sch 17191
17201,Blk 308,1.32055715133061,103.7673489037486,Blk 308 17201
17211,Bet Blks 315/318,1.31828806129678,103.7658972301256,Bet Blks 315/318 17211
17219,Blk 376,1.31820000002277,103.76615861100824,Blk 376 17219
17221,Blk 377,1.31735631283972,103.76790022594946,Blk 377 17221
17229,Blk 335,1.31728402491862,103.76824211745355,Blk 335 17229
17239,NTUC Fairprice,1.312440556,103.7658489,NTUC Fairprice 17239
17241,Blk 334,1.31519114798349,103.76905503649128,Blk 334 17241
17249,Blk 355,1.315171111,103.7693364,Blk 355 17249
17251,Blk 460,1.31148,103.76744,Blk 460 17251
17259,Opp Blk 460,1.31092798217655,103.76746074010758,Opp Blk 460 17259
17269,Blk 730,1.30513563161538,103.76274177899958,Blk 730 17269
17279,Blk 723,1.30292494255611,103.76319287727786,Blk 723 17279
17289,West Coast CC,1.30232494247638,103.7647147428673,West Coast CC 17289
17291,West Coast Pk,1.29035140506061,103.7696982607242,West Coast Pk 17291
17299,Opp West Coast Pk,1.29060555603074,103.77005055601748,Opp West Coast Pk 17299
17301,Opp West Coast View,1.29495361097608,103.76516694401263,Opp West Coast View 17301
17309,West Coast View,1.29537083302023,103.7652455560114,West Coast View 17309
17311,Opp Blk 801C,1.30101698629873,103.76229444678326,Opp Blk 801C 17311
17319,Blk 716,1.30183915639239,103.76229972130764,Blk 716 17319
17321,Tien Wah Press Bldg,1.30483416696998,103.76035361097787,Tien Wah Press Bldg 17321
17329,Blk 705,1.30505055600585,103.76058388902574,Blk 705 17329
17331,Opp Blk 518,1.30758833300768,103.75833111102288,Opp Blk 518 17331
17339,Blk 518,1.30785722199073,103.75850472198644,Blk 518 17339
17351,Aft Clementi Rd,1.29358000003179,103.76576444402885,Aft Clementi Rd 17351
17359,Bef Clementi Rd,1.29333722200355,103.7662175000262,Bef Clementi Rd 17359
17361,Opp West Coast Lk,1.29859750001329,103.76346250000068,Opp West Coast Lk 17361
17369,Aft West Coast Lk,1.29840583296856,103.76386861099265,Aft West Coast Lk 17369
17371,Blk 201,1.32058194734278,103.76356592222618,Blk 201 17371
17379,Blk 304,1.32049089180327,103.76389432891798,Blk 304 17379
17381,West Bay Resort Condo,1.29907638900012,103.76686444402534,West Bay Resort Condo 17381
17389,Opp West Bay Resort Condo,1.29908138901268,103.7670019440224,Opp West Bay Resort Condo 17389
18011,Aft Hortpark,1.28087089714667,103.8021033300325,Aft Hortpark 18011
18019,Bef Telok Blangah Hill Pk,1.28091055556275,103.80252305556164,Bef Telok Blangah Hill Pk 18019
18021,Opp Tempco Mfg,1.29645297711413,103.7889243029247,Opp Tempco Mfg 18021
18029,Tempco Mfg,1.29609811481527,103.7891804519008,Tempco Mfg 18029
18041,Normanton Pk,1.28836025261771,103.7931740283919,Normanton Pk 18041
18049,Opp Science Pk,1.29018147748939,103.79208093037772,Opp Science Pk 18049
18051,One-North Stn,1.29863776004531,103.7873441662514,One-North Stn 18051
18059,Opp One-North Stn,1.29849138898115,103.78720666698496,Opp One-North Stn 18059
18061,Blk 71,1.29671588928647,103.78738045694249,Blk 71 18061
18069,Opp Blk 71,1.29649064143644,103.7875521182857,Opp Blk 71 18069
18071,NUH,1.295425,103.784491,NUH 18071
18079,Opp NUH,1.2964817739742,103.78455389999202,Opp NUH 18079
18081,Blk 55,1.29478519265463,103.7873375415582,Blk 55 18081
18089,S'pore Post,1.29480675923682,103.78757357729762,S'pore Post 18089
18099,Bef Ayer Rajah Cres,1.29393169432811,103.78953616896972,Bef Ayer Rajah Cres 18099
18101,PSB Science Pk Bldg,1.292825,103.786354,PSB Science Pk Bldg 18101
18109,Opp PSB Science Pk Bldg,1.29403436577434,103.7867259978904,Opp PSB Science Pk Bldg 18109
18111,Fairfield Meth Pr Sch,1.30059305599352,103.78448416698872,Fairfield Meth Pr Sch 18111
18119,Opp Fairfield Meth Pr Sch,1.30004638896912,103.78466749999944,Opp Fairfield Meth Pr Sch 18119
18121,Opp Ayer Rajah Ind Est,1.29751168042934,103.7854209482613,Opp Ayer Rajah Ind Est 18121
18129,Ayer Rajah Ind Est,1.29776225378985,103.78570767644749,Ayer Rajah Ind Est 18129
18131,Science Pk,1.28950073498414,103.7918327963467,Science Pk 18131
18141,Aft Anglo-Chinese JC,1.30418279677397,103.78788091438994,Aft Anglo-Chinese JC 18141
18149,Essec Business Sch,1.30253001117245,103.78724143833315,Essec Business Sch 18149
18151,Opp One-North Stn/Galaxis,1.30051083054497,103.78864286195989,Opp One-North Stn/Galaxis 18151
18159,One-North Stn/Galaxis,1.3003468994065,103.78858368998314,One-North Stn/Galaxis 18159
18171,Bef Weyhill Cl,1.29905478616662,103.79412910351344,Bef Weyhill Cl 18171
18179,Opp Weyhill Cl,1.29988107543841,103.79304547568135,Opp Weyhill Cl 18179
18181,Opp Tanglin Trust Sch,1.29714585347396,103.79369361976173,Opp Tanglin Trust Sch 18181
18189,Tanglin Trust Sch,1.29839662957663,103.79390316193482,Tanglin Trust Sch 18189
18191,Bef Whitchurch Rd,1.29445611099682,103.795943888993,Bef Whitchurch Rd 18191
18199,Aft Whitchurch Rd,1.29544342826531,103.79407617440388,Aft Whitchurch Rd 18199
18201,Mediacorp Campus,1.29498098725808,103.7932287526945,Mediacorp Campus 18201
18211,Infinite Studios,1.29161816867907,103.79522263706237,Infinite Studios 18211
18221,NUH,1.29630067771211,103.78346553393848,NUH 18221
18239,Opp NUH,1.29678943404486,103.78318782626636,Opp NUH 18239
18241,Opp Dnv Technology Ctr,1.29092304543197,103.78707861052064,Opp Dnv Technology Ctr 18241
18249,DNV Technology Ctr,1.29072399998624,103.78712700002762,DNV Technology Ctr 18249
18251,Opp Reuters,1.29068138903164,103.7884536109736,Opp Reuters 18251
18261,Opp DSO Natl Laboratories,1.29015996757499,103.78933806183709,Opp DSO Natl Laboratories 18261
18269,Bef Reuters,1.29010333301913,103.789186943996,Bef Reuters 18269
18271,Blk 85,1.28840699998743,103.78992778459764,Blk 85 18271
18279,Opp Blk 85,1.28840636755823,103.78976622482348,Opp Blk 85 18279
18281,The Rutherford,1.28752556916883,103.7912122154174,The Rutherford 18281
18289,Opp The Rutherford,1.28738105702672,103.7912059790003,Opp The Rutherford 18289
18301,Lim Seng Tjoe Bldg (LT 27),1.29738521493261,103.7809269856724,Lim Seng Tjoe Bldg (LT 27) 18301
18309,Blk S17,1.29752011664987,103.78134198615086,Blk S17 18309
18311,Blk S12,1.29743814797617,103.77792133383952,Blk S12 18311
18319,Opp University Hall,1.29752638901257,103.77813111102236,Opp University Hall 18319
18321,Opp University Health Ctr,1.29879333297449,103.77561916702604,Opp University Health Ctr 18321
18329,University Health Ctr,1.2989244439988,103.77611416701257,University Health Ctr 18329
18331,Kent Ridge Stn Exit A/NUH,1.2937072200211,103.78489139998857,Kent Ridge Stn Exit A/NUH 18331
18339,Opp Kent Ridge Stn Exit A,1.29379302903228,103.78507910002646,Opp Kent Ridge Stn Exit A 18339
19011,Blk 19A CP,1.30781638901709,103.78423666696617,Blk 19A CP 19011
19019,Blk 27,1.30807305598128,103.78475916699466,Blk 27 19019
19021,SP SMA,1.30965490194051,103.7812018067838,SP SMA 19021
19029,Opp SP SMA,1.3095609201372,103.78201879388226,Opp SP SMA 19029
19031,Dover Stn Exit A,1.31123416666912,103.778383611132,Dover Stn Exit A 19031
19039,Dover Stn Exit B,1.31167951129602,103.77868390552868,Dover Stn Exit B 19039
19041,Opp Sch of Science & Tech,1.31235972197855,103.77552750001335,Opp Sch of Science & Tech 19041
19049,Sch of Science & Tech,1.31266302174215,103.77479215922536,Sch of Science & Tech 19049
19051,New Town Sec Sch,1.30896444398008,103.77392333299538,New Town Sec Sch 19051
19059,University Town,1.30894500001531,103.7727225000061,University Town 19059
19061,Ayer Rajah Telecoms,1.30752442673366,103.77782122462926,Ayer Rajah Telecoms 19061
19069,Opp Ayer Rajah Telecoms,1.30778758326419,103.77671170466876,Opp Ayer Rajah Telecoms 19069
19071,Opp Acs Independent,1.30515500002931,103.7810830559728,Opp Acs Independent 19071
19079,Dover Ct Intl Sch,1.30607,103.780131,Dover Ct Intl Sch 19079
19081,Opp ACS Boarding Sch,1.30256972202724,103.78282472199412,Opp ACS Boarding Sch 19081
19089,Acs Independent,1.30370305599194,103.7818438890004,Acs Independent 19089
19091,S'pore Poly,1.30739277801307,103.78208222199828,S'pore Poly 19091
19099,Opp S'pore Poly,1.30697118032996,103.78191236221396,Opp S'pore Poly 19099
20011,Blk 506,1.31308624553797,103.76128731220228,Blk 506 20011
20019,Blk 431,1.31357611099308,103.7615108330155,Blk 431 20019
20021,NEWEST,1.31675923723731,103.75788959223743,NEWEST 20021
20029,OPP NEWEST,1.31772833949651,103.75767989744158,OPP NEWEST 20029
20031,The Infiniti,1.32055987103977,103.75464677812964,The Infiniti 20031
20039,Opp The Infiniti,1.32102499760642,103.75471510655738,Opp The Infiniti 20039
20051,Cycle & Carriage,1.32258708167298,103.74754428861822,Cycle & Carriage 20051
20059,Opp Cycle & Carriage,1.32332108750232,103.7476935100464,Opp Cycle & Carriage 20059
20061,Aft Jurong Town Hall Rd,1.32380614051658,103.74298566424716,Aft Jurong Town Hall Rd 20061
20069,Bef Jurong Town Hall Rd,1.32405636523113,103.74418793943124,Bef Jurong Town Hall Rd 20069
20081,Carrier S'pore,1.32660472912447,103.73879228035436,Carrier S'pore 20081
20089,Opp Carrier S'pore,1.32702967705527,103.7392229529496,Opp Carrier S'pore 20089
20101,Nan Hua Pr Sch,1.31993714188512,103.76221926730372,Nan Hua Pr Sch 20101
20109,Blk 203,1.32085220079341,103.76206999856429,Blk 203 20109
20121,Opp Blk 51,1.32023972200054,103.73707999997312,Opp Blk 51 20121
20129,Bet Blks 50/51,1.32034555007728,103.73754105423453,Bet Blks 50/51 20129
20131,S'pore Food Industries Bldg,1.3155936163792,103.7518511517015,S'pore Food Industries Bldg 20131
20139,Opp Angliss Bldg,1.31584166892255,103.75204376675156,Opp Angliss Bldg 20139
20141,Opp Blk 408,1.31771999750607,103.7487710528033,Opp Blk 408 20141
20149,Blk 408,1.31795969674094,103.74897266925451,Blk 408 20149
20151,Opp Blk 411,1.31829668687275,103.74631047251556,Opp Blk 411 20151
20159,Blk 411,1.31851137522994,103.74640166581364,Blk 411 20159
20161,Opp Blks 34/35,1.31915476642967,103.742136955266,Opp Blks 34/35 20161
20169,Blk 35,1.31928347830225,103.74251246450982,Blk 35 20169
20171,Opp Blk 47,1.31967681449311,103.73984434693502,Opp Blk 47 20171
20179,Aft Teban Gdns Rd,1.32000211967899,103.73910069465364,Aft Teban Gdns Rd 20179
20181,Ayer Rajah CC,1.32048478912567,103.74745845796298,Ayer Rajah CC 20181
20189,Opp Ayer Rajah CC,1.32030501410074,103.74727299945997,Opp Ayer Rajah CC 20189
20191,Blk 407,1.31924166701026,103.74845638901051,Blk 407 20191
20199,Blk 410,1.31908111097886,103.74819972197396,Blk 410 20199
20201,Bef Blk 39,1.32127611097845,103.74340527799252,Bef Blk 39 20201
20209,Bef Jurong Town Hall Rd,1.32043333301332,103.7440744439939,Bef Jurong Town Hall Rd 20209
20211,Blk 41,1.32177193921987,103.74184000241928,Blk 41 20211
20219,Opp Blk 41,1.32205689998871,103.74143326706027,Opp Blk 41 20219
20231,Bef Hasanah Mque,1.32234407286907,103.7394439595661,Bef Hasanah Mque 20231
20239,Aft Hasanah Mque,1.32246879634748,103.73947011845992,Aft Hasanah Mque 20239
20241,Opp Blk 54,1.32116277513743,103.73638362986378,Opp Blk 54 20241
20249,Blk 54,1.32162000001571,103.73670359829424,Blk 54 20249
20251,Bef Teban Gdns Rd,1.31975500989852,103.7444710207628,Bef Teban Gdns Rd 20251
20259,C'wealth Sec Sch,1.31962187605788,103.744770025327,C'wealth Sec Sch 20259
20261,Aft Pandan Gdns,1.3215997308483,103.74546423225031,Aft Pandan Gdns 20261
20269,Bef Pandan Gdns,1.32151780618055,103.74580944947768,Bef Pandan Gdns 20269
20271,Opp German Ctr,1.32527553308365,103.74550887325395,Opp German Ctr 20271
20281,Opp The Japanese Sec Sch,1.31234219524906,103.75484214400764,Opp The Japanese Sec Sch 20281
20289,The Japanese Sec Sch,1.31248801817062,103.75503415636196,The Japanese Sec Sch 20289
20291,Tanglin Sec Sch,1.31095062259154,103.75771430804498,Tanglin Sec Sch 20291
20299,Opp Tanglin Sec Sch,1.3109280417106,103.7585754404408,Opp Tanglin Sec Sch 20299
20309,Blk L Pandan Light Ind Pk,1.31062303116794,103.75403766163392,Blk L Pandan Light Ind Pk 20309
20319,Blk T Pandan Light Ind Pk,1.31259468493848,103.752844213074,Blk T Pandan Light Ind Pk 20319
20329,S'pore Food Ind,1.31503304622752,103.75102066090028,S'pore Food Ind 20329
20331,Vejoil Pte Ltd,1.31329138901596,103.74926333296754,Vejoil Pte Ltd 20331
20341,Pan Tech Ind Cplx,1.31186472196722,103.75047333297756,Pan Tech Ind Cplx 20341
21011,Aft Jurong Lake,1.32534328766029,103.72866849877528,Aft Jurong Lake 21011
21019,Aft Yuan Ching Rd,1.32554867828642,103.7270331798862,Aft Yuan Ching Rd 21019
21021,Bef Jurong Port Rd,1.32419322170223,103.72379008890384,Bef Jurong Port Rd 21021
21029,AFT CORP PL,1.32429728567538,103.72180766916205,AFT CORP PL 21029
21041,Aft Jln Terusan,1.3209197220107,103.72012027797446,Aft Jln Terusan 21041
21049,Bef Jln Terusan,1.32107250538852,103.72024520956326,Bef Jln Terusan 21049
21051,Bef Penjuru Rd,1.312256111,103.7304481,Bef Penjuru Rd 21051
21059,Aft Penjuru Rd,1.311953889,103.7301381,Aft Penjuru Rd 21059
21069,Bef Jln Tepong,1.31237305598007,103.7191852779968,Bef Jln Tepong 21069
21071,Jurong Abattoir,1.31394221438857,103.72226742161244,Jurong Abattoir 21071
21079,Opp Jurong Abattoir,1.31342751032359,103.72279763377816,Opp Jurong Abattoir 21079
21089,Bef Jln Buroh,1.31206487520147,103.72296452520035,Bef Jln Buroh 21089
21099,Jurong Island Checkpt,1.31014377264327,103.71110346092364,Jurong Island Checkpt 21099
21109,Ctrl Fish Proc Fty,1.31100299869144,103.72109770773132,Ctrl Fish Proc Fty 21109
21111,Aft Jurong Pier Rd,1.31442640542243,103.71238327744312,Aft Jurong Pier Rd 21111
21119,Bef Jurong Pier Rd,1.31397291780129,103.71201936489672,Bef Jurong Pier Rd 21119
21121,SPC Svc Stn,1.31469130993085,103.71601687480324,SPC Svc Stn 21121
21129,Opp SPC Svc Stn,1.31427443753325,103.71493141053244,Opp SPC Svc Stn 21129
21131,Bef Jurong Port Rd,1.31470833302608,103.71799361097378,Bef Jurong Port Rd 21131
21139,Aft Jurong Port Rd,1.31433044660166,103.71846563037732,Aft Jurong Port Rd 21139
21141,Aft Jln Buroh,1.31517431113868,103.71957368500225,Aft Jln Buroh 21141
21149,Jurong Port Workshops,1.315633,103.719896,Jurong Port Workshops 21149
21151,CWT Distripark,1.3169920318205,103.71988944330612,CWT Distripark 21151
21159,Sin Soon Huat,1.31868562417111,103.72042922086165,Sin Soon Huat 21159
21161,Blk 216B,1.35043949411648,103.7127413228723,Blk 216B 21161
21169,Opp Blk 216B,1.35074356093462,103.71275812568066,Opp Blk 216B 21169
21171,OPP CORP PL,1.3258163890121,103.71906611098208,OPP CORP PL 21171
21179,CORP PL,1.32586166697514,103.71929527796604,CORP PL 21179
21181,Opp Blk 161,1.329915,103.720953,Opp Blk 161 21181
21189,Blk 161,1.33026046590704,103.72122294249657,Blk 161 21189
21191,Opp Blk 178,1.33290982216515,103.72044541450344,Opp Blk 178 21191
21199,Blk 178,1.333309472028,103.72051292839538,Blk 178 21199
21201,Opp Taman Jurong Greens,1.33683396424463,103.71778639139951,Opp Taman Jurong Greens 21201
21209,Taman Jurong Greens,1.33687648564633,103.71805599895129,Taman Jurong Greens 21209
21211,Opp Lakepoint Condo,1.34004972199531,103.7160683329844,Opp Lakepoint Condo 21211
21219,Lakepoint Condo,1.34010356133429,103.71625930906036,Lakepoint Condo 21219
21229,Opp S'Pore A'Space Mfg,1.34206,103.716007,Opp S'Pore A'Space Mfg 21229
21231,Blk 203,1.34359535075913,103.7159904033882,Blk 203 21231
21239,Opp Blk 203,1.34450482589547,103.71633035405124,Opp Blk 203 21239
21241,216 CP,1.34973665190679,103.7123542531276,216 CP 21241
21249,Blk 213,1.34958421982025,103.71249318123604,Blk 213 21249
21251,Sime Darby,1.33624121368399,103.71034741400833,Sime Darby 21251
21259,Opp Sime Darby,1.33604134949327,103.71043700168366,Opp Sime Darby 21259
21261,AFT CHIN BEE AVE,1.33393514008105,103.7102508545148,AFT CHIN BEE AVE 21261
21269,Bef Chin Bee Ave,1.33418183646412,103.71049761773747,Bef Chin Bee Ave 21269
21271,Opp Assyakirin Mque,1.33465896770641,103.71947315443572,Opp Assyakirin Mque 21271
21279,Assyakirin Mque,1.33491282590378,103.71952517818409,Assyakirin Mque 21279
21291,Aft Jln Buroh,1.31585422996408,103.7094335167164,Aft Jln Buroh 21291
21299,Bef Jln Buroh,1.316014,103.709922,Bef Jln Buroh 21299
21301,Opp Jln Pesawat,1.320072,103.710136,Opp Jln Pesawat 21301
21309,Aft Jln Pesawat,1.31919,103.710547,Aft Jln Pesawat 21309
21311,Bef Tractor Rd,1.323117,103.709537,Bef Tractor Rd 21311
21319,Opp Tractor Rd,1.32377340235344,103.70980422080449,Opp Tractor Rd 21319
21321,UTOC ENGRG,1.32624055798556,103.70885429370765,UTOC ENGRG 21321
21329,OPP UTOC ENGRG,1.32691548284142,103.70901792785014,OPP UTOC ENGRG 21329
21331,Opp Premier Milk Pte Ltd,1.33029049207675,103.70796785261548,Opp Premier Milk Pte Ltd 21331
21339,Premier Milk Pte Ltd,1.329905,103.708306,Premier Milk Pte Ltd 21339
21341,Opp Beecham Pte Ltd,1.33517345758852,103.7089582557374,Opp Beecham Pte Ltd 21341
21349,Beecham Pte Ltd,1.335535,103.709304,Beecham Pte Ltd 21349
21351,BEF BOON LAY WAY,1.33882138642125,103.70956429008974,BEF BOON LAY WAY 21351
21359,AFT ST KINETICS,1.33867010260834,103.7099597309989,AFT ST KINETICS 21359
21361,Blk 695,1.34302323304896,103.70767181671128,Blk 695 21361
21369,Opp Blk 695,1.34309123717886,103.70800310705764,Opp Blk 695 21369
21371,Blk 680C,1.34522722613512,103.70617873626036,Blk 680C 21371
21379,Blk 263,1.34534855216089,103.7064891298892,Blk 263 21379
21381,ST. JOSEPH'S HME,1.350462,103.709815,ST. JOSEPH'S HME 21381
21389,OPP ST. JOSEPH'S HME,1.350059,103.709927,OPP ST. JOSEPH'S HME 21389
21391,River Valley High Sch,1.34485064221938,103.70847936082644,River Valley High Sch 21391
21399,Opp River Valley High Sch,1.3448140795943,103.70805985100183,Opp River Valley High Sch 21399
21409,Blk 191,1.34338969264048,103.71207059648545,Blk 191 21409
21411,Opp Blk 188,1.34393270141852,103.71033048575686,Opp Blk 188 21411
21419,Blk 188,1.34388060681347,103.71057645840756,Blk 188 21419
21421,Blk 176,1.34720307776277,103.71032595632526,Blk 176 21421
21429,Blk 185,1.34740203306581,103.71059149459592,Blk 185 21429
21431,Blk 210,1.34765638897246,103.71241055602675,Blk 210 21431
21439,Boon Lay CC,1.34842277796612,103.71165888901648,Boon Lay CC 21439
21441,Blk 207,1.34638242521451,103.713262291859,Blk 207 21441
21449,Boon Lay Shop Ctr,1.34639805597018,103.71306138901696,Boon Lay Shop Ctr 21449
21451,Blk 206,1.34524833302487,103.7147300000144,Blk 206 21451
21459,Blk 209,1.3455804550235,103.71491332975408,Blk 209 21459
21461,BEF TUKANG INNOVATION DR,1.32731972199567,103.71799361099863,BEF TUKANG INNOVATION DR 21461
21469,Bef Chia Ping Rd,1.32747500002724,103.71808527797025,Bef Chia Ping Rd 21469
21471,AFT TUKANG INNOVATION DR,1.32673138898791,103.71542666702132,AFT TUKANG INNOVATION DR 21471
21479,Hup Leck Heavy Equipment,1.3269180560083,103.71570166699784,Hup Leck Heavy Equipment 21479
21481,Grundfos,1.325953,103.711932,Grundfos 21481
21489,Opp Grundfos,1.326155,103.712199,Opp Grundfos 21489
21491,Bef Intl Rd,1.3268635454851,103.71082676692178,Bef Intl Rd 21491
21499,Bef Jln Tukang,1.3265554895957,103.71102434826084,Bef Jln Tukang 21499
21501,Bef Meiji Seika,1.3304277146486,103.71000208357827,Bef Meiji Seika 21501
21509,Opp Meiji Seika,1.33115639068272,103.70998723220184,Opp Meiji Seika 21509
21511,Opp Amoy Canning,1.3331199693958,103.71107697488075,Opp Amoy Canning 21511
21519,Amoy Canning,1.33295908040191,103.71129155158584,Amoy Canning 21519
21521,PB Packaging Systems,1.33413893275864,103.71458530428906,PB Packaging Systems 21521
21529,Aft Third Chin Bee Rd,1.3340830392462,103.71509707566638,Aft Third Chin Bee Rd 21529
21531,Clariant S'pore,1.33187576098508,103.71634483335832,Clariant S'pore 21531
21539,Opp Kaily Packaging,1.331311,103.716354,Opp Kaily Packaging 21539
21541,Jurong Futsal Ctr,1.33138075779669,103.71986360869532,Jurong Futsal Ctr 21541
21549,Automotive Technology,1.33088280586201,103.71899585412748,Automotive Technology 21549
21551,Blk 151,1.3266610431866,103.7209862100987,Blk 151 21551
21559,CISCO Recall,1.326626598883,103.72063909698711,CISCO Recall 21559
21561,Blk 158,1.328801,103.722753,Blk 158 21561
21569,Opp Blk 158,1.32857203912272,103.7228981311344,Opp Blk 158 21569
21571,Opp Jurong Sec Sch,1.33056719470166,103.72307005592994,Opp Jurong Sec Sch 21571
21579,Jurong Sec Sch,1.33013472279057,103.72318086110512,Jurong Sec Sch 21579
21581,Blk 65,1.33243350969467,103.72328639029728,Blk 65 21581
21589,Opp Blk 65,1.33246568746472,103.72345805167676,Opp Blk 65 21589
21591,Opp Blk 117,1.33476103645994,103.72242808341085,Opp Blk 117 21591
21599,Blk 117,1.33468356164521,103.722684936396,Blk 117 21599
21601,Blk 357,1.33727029608815,103.72109770581518,Blk 357 21601
21609,Opp Blk 364,1.33775166774993,103.72102625466782,Opp Blk 364 21609
21611,Blk 367,1.3383643422738,103.71931958855112,Blk 367 21611
21619,AFT CORP RD,1.33793509893342,103.71816213921478,AFT CORP RD 21619
21621,Blk 354,1.3392149977089,103.72205929003124,Blk 354 21621
21629,Blk 334,1.339672,103.722816,Blk 334 21629
21631,Blk 115/Opp Japanese Gdn,1.33363626085559,103.72493610114242,Blk 115/Opp Japanese Gdn 21631
21639,Japanese Gdn/Opp Blk 115,1.33378861099344,103.72511638897618,Japanese Gdn/Opp Blk 115 21639
21641,Opp Lakeside Apt,1.3363012622323,103.7250086693193,Opp Lakeside Apt 21641
21649,Lakeside Apt,1.33670886560508,103.72517977728532,Lakeside Apt 21649
21651,Opp Chinese Gdn,1.33873014874255,103.72402172321266,Opp Chinese Gdn 21651
21659,Chinese Gdn,1.33896010542304,103.7241080848694,Chinese Gdn 21659
21661,Yuan Ching Sec Sch,1.34176560473259,103.72141430185464,Yuan Ching Sec Sch 21661
21669,Opp Blk 134D,1.34134214489014,103.7220951930324,Opp Blk 134D 21669
21671,Blk 331,1.33806500003375,103.72376166703002,Blk 331 21671
21679,Blk 329,1.3377621978639,103.72358362464976,Blk 329 21679
21681,Opp Blk 200,1.34228732259066,103.71466298692036,Opp Blk 200 21681
21689,Blk 200,1.34241984576482,103.71442338427325,Blk 200 21689
21691,OPP SUMMERDALE,1.34107859811695,103.71138811111824,OPP SUMMERDALE 21691
21699,SUMMERDALE,1.34154982082089,103.71203075013112,SUMMERDALE 21699
21711,Bet Blks 523/525,1.34699884210956,103.7157628162222,Bet Blks 523/525 21711
21719,Opp Blk 529,1.34779474567713,103.71507297402223,Opp Blk 529 21719
21751,Jurong Sec Sch,1.33089333300685,103.72480472198431,Jurong Sec Sch 21751
21759,Opp Jurong Sec Sch,1.33032387572414,103.7249113116863,Opp Jurong Sec Sch 21759
21761,Blk 138B,1.32831333299986,103.72476805601296,Blk 138B 21761
21769,Opp Blk 138B,1.32847554099899,103.7249037836336,Opp Blk 138B 21769
21771,AFT CORP DR,1.3266,103.723626,AFT CORP DR 21771
21779,Aft Yuan Ching Rd,1.32643572160288,103.72425774502392,Aft Yuan Ching Rd 21779
22009,Boon Lay Int,1.33932334709184,103.70545701843297,Boon Lay Int 22009
22011,Jurong Bird Pk,1.32129797964322,103.7077550377112,Jurong Bird Pk 22011
22019,Opp Jurong Bird Pk,1.32202402246272,103.7071133033833,Opp Jurong Bird Pk 22019
22021,Givaudan,1.32168245080395,103.70369314086494,Givaudan 22021
22029,Opp Givaudan,1.32244971744256,103.70268212142696,Opp Givaudan 22029
22031,Bef Pioneer Circus,1.32216806047952,103.69855176773174,Bef Pioneer Circus 22031
22039,Markono Holdings,1.32284076507861,103.69861624674222,Markono Holdings 22039
22041,Aft Tg Kling Rd,1.31463499997457,103.69873083298778,Aft Tg Kling Rd 22041
22049,Bef Tg Kling Rd,1.3144663889863,103.69788888900642,Bef Tg Kling Rd 22049
22051,Opp Buroh St,1.31386916701697,103.7020447220124,Opp Buroh St 22051
22059,Aft Buroh St,1.3136061110111,103.701262499978,Aft Buroh St 22059
22061,Ceva Logistics,1.31427617763344,103.70464097156749,Ceva Logistics 22061
22069,Opp Ceva Logistics,1.31365447950552,103.703794622055,Opp Ceva Logistics 22069
22071,Bef Jurong Pier Rd,1.31433636827053,103.70695129035256,Bef Jurong Pier Rd 22071
22079,Aft Jurong Pier Rd,1.31394399203055,103.70804979014268,Aft Jurong Pier Rd 22079
22081,Opp Natsteel,1.30599555710248,103.700375932994,Opp Natsteel 22081
22089,Natsteel,1.30589277802592,103.70087805599309,Natsteel 22089
22091,Aft Jln Samulun,1.30880721630907,103.6965558745042,Aft Jln Samulun 22091
22099,Bef Jln Samulun,1.30879764761052,103.69688960154522,Bef Jln Samulun 22099
22141,Aft Jln Buroh,1.3173330063793,103.6959517251446,Aft Jln Buroh 22141
22149,Bef Jln Buroh,1.3173196040118,103.69631182452451,Bef Jln Buroh 22149
22151,Hitachi,1.32095233702714,103.69627164313702,Hitachi 22151
22159,Opp Hitachi,1.32095243330175,103.69663318172152,Opp Hitachi 22159
22161,Aft Lok Yang Way,1.32551656861142,103.69643109025226,Aft Lok Yang Way 22161
22169,Aft Intl Rd,1.32624542877841,103.6966157738775,Aft Intl Rd 22169
22171,Opp Secura S'pore,1.32954166703099,103.69637694399476,Opp Secura S'pore 22171
22179,Secura S'Pore,1.33000472340216,103.6966590690515,Secura S'Pore 22179
22181,S'pore Post,1.33301611112037,103.69637694442996,S'pore Post 22181
22189,Pioneer Junction,1.33369710730493,103.69666289847902,Pioneer Junction 22189
22191,Sbst Soon Lee Depot,1.33130584013018,103.69832754842358,Sbst Soon Lee Depot 22191
22199,Opp Sbst Soon Lee Depot,1.33102248150132,103.69847431049809,Opp Sbst Soon Lee Depot 22199
22219,Aft Neythal Rd,1.32764556072381,103.70260743188996,Aft Neythal Rd 22219
22221,Aft Pioneer Rd Nth,1.32790916071437,103.69785686002558,Aft Pioneer Rd Nth 22221
22229,Bef Pioneer Rd Nth,1.32764334311,103.6988746838078,Bef Pioneer Rd Nth 22229
22231,Blk 639,1.34079486676221,103.69717899290252,Blk 639 22231
22239,Blk 624,1.34081972201603,103.69742194398373,Blk 624 22239
22241,Opp Blk 622,1.34012270744787,103.69938392223636,Opp Blk 622 22241
22249,Blk 622,1.34016007378301,103.69865436006684,Blk 622 22249
22251,Blk 665A,1.34073333303053,103.70265666700926,Blk 665A 22251
22259,Blk 668D,1.34089136412278,103.7025463831608,Blk 668D 22259
22271,Bef Kwong Min Rd,1.32924582821916,103.7001114570651,Bef Kwong Min Rd 22271
22281,Aft Soon Lee Rd,1.32849264291843,103.70375258407392,Aft Soon Lee Rd 22281
22289,Bef Fan Yoong Rd,1.32926333300758,103.70284000001512,Bef Fan Yoong Rd 22289
22299,Bef Soon Lee Rd,1.33068833434452,103.70177410483808,Bef Soon Lee Rd 22299
22309,Aft Fan Yoong Rd,1.33326999997395,103.7033808329889,Aft Fan Yoong Rd 22309
22319,Bef Enterprise Rd,1.33198138900019,103.70545250001828,Bef Enterprise Rd 22319
22329,Opp Sam Mccoy Engrg,1.33024346855102,103.70501590196446,Opp Sam Mccoy Engrg 22329
22331,Jurong Shipyard,1.30485847664917,103.70317916961058,Jurong Shipyard 22331
22341,Blk 673C,1.34491616105023,103.70103326346651,Blk 673C 22341
22349,Blk 734A CP,1.34520537289138,103.7007962851633,Blk 734A CP 22349
22351,Opp Blk 717,1.34277421893699,103.69803382884736,Opp Blk 717 22351
22359,Blk 717,1.3425266670299,103.69727527800596,Blk 717 22359
22361,Blk 641,1.34077805602959,103.69587277801652,Blk 641 22361
22369,Blk 704,1.34033186393306,103.69511038795854,Blk 704 22369
22391,Bef Jln Buroh,1.31342749923518,103.6957230721563,Bef Jln Buroh 22391
22399,Aft Jln Buroh,1.31345707127095,103.69601603244551,Aft Jln Buroh 22399
22401,Aft Shipyard Rd,1.31007875279152,103.69714966993958,Aft Shipyard Rd 22401
22409,Bef Shipyard Rd,1.31014256556667,103.6974198986034,Bef Shipyard Rd 22409
22411,Blk 676B,1.34626796042608,103.70380100924208,Blk 676B 22411
22419,Jurong West Sub-Stn,1.34622597800485,103.70286134292763,Jurong West Sub-Stn 22419
22421,Natl Oxygen Pte Ltd,1.30775500000365,103.6987238889808,Natl Oxygen Pte Ltd 22421
22429,Opp Natl Oxygen Pte Ltd,1.30725749703402,103.69908070609895,Opp Natl Oxygen Pte Ltd 22429
22431,Opp Four Leaves,1.33308242562379,103.70742208599415,Opp Four Leaves 22431
22439,Aft Four Leaves,1.33311257526168,103.70680944659456,Aft Four Leaves 22439
22441,Blk 669 CP,1.342816,103.70358,Blk 669 CP 22441
22449,Blk 685B,1.343058,103.703812,Blk 685B 22449
22451,Opp Blk 643,1.33817022625307,103.6956128058036,Opp Blk 643 22451
22459,Blk 643,1.33856290426228,103.69572041924056,Blk 643 22459
22461,Opp Blk 653B,1.33596194443399,103.6962049999685,Opp Blk 653B 22461
22469,Blk 653B,1.33649062479414,103.69631873743737,Blk 653B 22469
22471,Bef Jurong West St 93,1.33509047686273,103.6931453983202,Bef Jurong West St 93 22471
22479,Aft Jurong West St 93,1.33474242487786,103.693102645977,Aft Jurong West St 93 22479
22481,Blk 691A CP,1.3424622384747,103.70554089546958,Blk 691A CP 22481
22489,Blk 683A,1.34258460261,103.70536833792208,Blk 683A 22489
22491,Blk 662D,1.336702,103.705146,Blk 662D 22491
22499,Opp Blk 662C,1.337187,103.704805,Opp Blk 662C 22499
22501,Blk 662A,1.33769199118033,103.70297133237952,Blk 662A 22501
22509,Blk 664C,1.33799405073941,103.70323491142736,Blk 664C 22509
22511,Blk 658C,1.33746181720219,103.70029665103546,Blk 658C 22511
22519,Blk 608,1.33773359608761,103.6999522210238,Blk 608 22519
22521,Pioneer Stn Exit A,1.33741647896432,103.69776790191162,Pioneer Stn Exit A 22521
22529,Pioneer Stn Exit B,1.33777262767008,103.69728617102128,Pioneer Stn Exit B 22529
22531,Opp Jurong West Pr Sch,1.33922673310366,103.6981437537688,Opp Jurong West Pr Sch 22531
22539,Jurong West Pr Sch,1.33919523713654,103.69838678279568,Jurong West Pr Sch 22539
22541,Blk 655,1.33496804809618,103.69761016575691,Blk 655 22541
22549,Opp Blk 655 CP,1.33463563122766,103.69795361380136,Opp Blk 655 CP 22549
22551,Blk 657,1.33498204269222,103.70065616150622,Blk 657 22551
22559,Opp Blk 657 CP,1.33465462202129,103.70101403397048,Opp Blk 657 CP 22559
22561,Blk 660 Cp,1.33497038465954,103.704144267721,Blk 660 Cp 22561
22569,Opp Blk 660 CP,1.33464939590143,103.70458203446964,Opp Blk 660 CP 22569
22591,Blk 670A,1.3447589,103.70289,Blk 670A 22591
22599,Blk 678D,1.3443608,103.7034508,Blk 678D 22599
22609,Soon Lee Bus Pk,1.33048210252836,103.69830144019608,Soon Lee Bus Pk 22609
23011,Carrier Transicold P/L,1.32240518497889,103.69250829071932,Carrier Transicold P/L 23011
23019,Nippon Paint,1.32302099996901,103.69256700002228,Nippon Paint 23019
23021,Aft Benoi Sector,1.32243595181684,103.6851860612218,Aft Benoi Sector 23021
23029,Stamford Tyre,1.32302194442237,103.68622888892132,Stamford Tyre 23029
23031,Bef Benoi Flyover,1.32239543114794,103.68099108399514,Bef Benoi Flyover 23031
23039,Aft Benoi Flyover,1.32303111111252,103.68151388887642,Aft Benoi Flyover 23039
23041,Opp Jurong Camp,1.33334088691759,103.69055967203332,Opp Jurong Camp 23041
23049,Jurong Camp,1.33410764081742,103.69061140570352,Jurong Camp 23049
23051,Bef Kian Teck Rd,1.33168972198862,103.68928138898715,Bef Kian Teck Rd 23051
23059,Aft Kian Teck Rd,1.33071284667323,103.68813759846915,Aft Kian Teck Rd 23059
23061,Aft Kian Teck Rd,1.329527778021,103.68652222202904,Aft Kian Teck Rd 23061
23069,Bef Kian Teck Rd,1.32989950511553,103.68582019131011,Bef Kian Teck Rd 23069
23071,Opp SAFTI Military Inst,1.32977056006705,103.68257796013836,Opp SAFTI Military Inst 23071
23079,SAFTI Military Inst,1.33017908917854,103.68181544225692,SAFTI Military Inst 23079
23081,Opp S'pore Discovery Ctr,1.33011660553179,103.67826798978072,Opp S'pore Discovery Ctr 23081
23089,S'pore Discovery Ctr,1.330433728881,103.67843466317233,S'pore Discovery Ctr 23089
23091,Nippon,1.32451861639004,103.69276227893867,Nippon 23091
23099,Bef First Lok Yang Rd,1.32467117178875,103.69286142759196,Bef First Lok Yang Rd 23099
23101,Auto World Care,1.32453472201272,103.69091333299924,Auto World Care 23101
23109,Aft Third Lok Yang Rd,1.32468138902865,103.69068388898825,Aft Third Lok Yang Rd 23109
23111,Bef Fourth Lok Yang Rd,1.32454666699618,103.68836472199122,Bef Fourth Lok Yang Rd 23111
23119,Aft Fourth Lok Yang Rd,1.32467561470377,103.68847743952205,Aft Fourth Lok Yang Rd 23119
23121,Opp Leroy-Somer,1.32454951872062,103.68564634652004,Opp Leroy-Somer 23121
23129,Leroy-Somer,1.32468096678984,103.6855876219644,Leroy-Somer 23129
23131,MES Logistic Hub,1.32537111100949,103.684046944028,MES Logistic Hub 23131
23139,Bef Lok Yang Way,1.32517166702255,103.68414777801723,Bef Lok Yang Way 23139
23141,Opp Varco,1.32666880692569,103.68401506144215,Opp Varco 23141
23149,Varco,1.32683034567488,103.68416474851742,Varco 23149
23151,Containers Printers,1.32788229015066,103.68483459543562,Containers Printers 23151
23159,Aft Fifth Lok Yang Rd,1.32766374044406,103.68563350571776,Aft Fifth Lok Yang Rd 23159
23161,Aft Kian Teck Rd,1.3278839556405,103.68869472049072,Aft Kian Teck Rd 23161
23169,Bef Kian Teck Rd,1.32768833297607,103.6886763890102,Bef Kian Teck Rd 23169
23171,SKK (S) Pte Ltd,1.32789603640425,103.69118969248986,SKK (S) Pte Ltd 23171
23179,Aft Second Lok Yang Rd,1.32767284372911,103.69102029335356,Aft Second Lok Yang Rd 23179
23181,Aft Kian Teck Rd,1.32790305599387,103.69448861100469,Aft Kian Teck Rd 23181
23189,Bef First Lok Yang Rd,1.32764459746447,103.69397532297508,Bef First Lok Yang Rd 23189
23191,Opp S'Pore Trspt Pte Ltd,1.31966145615591,103.6836276514436,Opp S'Pore Trspt Pte Ltd 23191
23199,S'Pore Trspt Pte Ltd,1.31951264524841,103.68312351699184,S'Pore Trspt Pte Ltd 23199
23201,Opp Shimano Pte Ltd,1.31964589958011,103.68628552653574,Opp Shimano Pte Ltd 23201
23209,Aft Shimano Pte Ltd,1.31950327084795,103.6857761424996,Aft Shimano Pte Ltd 23209
23211,Mapletree Logistics Hub,1.31792061914698,103.6892047185557,Mapletree Logistics Hub 23211
23219,Tru-Marine,1.31832727349422,103.68852528629336,Tru-Marine 23219
23221,Aft Gul Way,1.30896659624814,103.67178095052478,Aft Gul Way 23221
23229,Opp Gul Way,1.30868757581216,103.67180644651503,Opp Gul Way 23229
23231,Keppel Logistics,1.30926499998419,103.67491833296832,Keppel Logistics 23231
23239,Opp Keppel Logistics,1.309154,103.675189,Opp Keppel Logistics 23239
23241,Aft Benoi Rd,1.3102543597714,103.67981162071216,Aft Benoi Rd 23241
23249,Bef Benoi Rd,1.30990348653039,103.67948846644916,Bef Benoi Rd 23249
23251,Aft Shipyard Rd,1.3117223561773,103.6837814302816,Aft Shipyard Rd 23251
23259,Bef Shipyard Rd,1.31139556205987,103.6836649596919,Bef Shipyard Rd 23259
23261,Opp Exxon Mobil,1.31264863196713,103.68577338809426,Opp Exxon Mobil 23261
23269,Exxon Mobil,1.312406285462,103.6857799047387,Exxon Mobil 23269
23279,Bef Benoi Sector,1.3149287594586,103.69162853660085,Bef Benoi Sector 23279
23281,Aft Pioneer Rd,1.30650617564734,103.6789673712784,Aft Pioneer Rd 23281
23291,ST Marine,1.30382409549165,103.6793047741436,ST Marine 23291
23301,Bef Benoi Basin,1.30212057066579,103.67953903241492,Bef Benoi Basin 23301
23311,Keppel Shipyard,1.30178638897679,103.67745555601714,Keppel Shipyard 23311
23321,Bef Benoi Lane,1.30404333032775,103.67618479236954,Bef Benoi Lane 23321
23331,Opp JP Nelson,1.30689333299079,103.67584222201576,Opp JP Nelson 23331
23341,Aft Pioneer Rd,1.31118496429579,103.67850804808974,Aft Pioneer Rd 23341
23349,Bef Pioneer Rd,1.31076855055702,103.67871579430351,Bef Pioneer Rd 23349
23351,Aft Gul Ave,1.31615485867639,103.67874941599844,Aft Gul Ave 23351
23359,Opp Gul Ave,1.31500500807478,103.6788828370567,Opp Gul Ave 23359
23361,Opp Keppel Logistics,1.31910770453777,103.6788383227952,Opp Keppel Logistics 23361
23369,Keppel Logistics,1.31907826658404,103.67911023430727,Keppel Logistics 23369
23371,Bef Joo Koon Int,1.32595445317751,103.6790814673288,Bef Joo Koon Int 23371
23379,Opp Joo Koon Int,1.3265431228454,103.67939439835484,Opp Joo Koon Int 23379
23389,PEC Ltd,1.30755644701044,103.69377301234816,PEC Ltd 23389
23399,Keppel Offshore & Marine,1.30533638898993,103.69237083299345,Keppel Offshore & Marine 23399
23409,Mobil Marine Ter,1.30352138897737,103.68933638897876,Mobil Marine Ter 23409
23419,Bef Shipyard Cres,1.30380777799126,103.6861461109867,Bef Shipyard Cres 23419
23429,Opp EMAS Marine Base,1.30456833652112,103.68472051252805,Opp EMAS Marine Base 23429
23439,Opp SML Shipyard Ltd,1.30774277950908,103.68468656882482,Opp SML Shipyard Ltd 23439
23441,Bef Benoi Pl,1.31304186906391,103.67862695881058,Bef Benoi Pl 23441
23449,Aft Benoi Pl,1.31284166701008,103.67877583300174,Aft Benoi Pl 23449
23451,Jurong Shipyard,1.30402666700212,103.6972844439932,Jurong Shipyard 23451
23461,Tanoto Shipyard,1.30546916761511,103.69643466903612,Tanoto Shipyard 23461
23469,Opp Tanoto Shipyard,1.3050852014562,103.69683459275382,Opp Tanoto Shipyard 23469
23471,Aft Benoi Rd,1.31966340928848,103.68097194774356,Aft Benoi Rd 23471
23479,Bef Benoi Rd,1.31950924526288,103.6806598533434,Bef Benoi Rd 23479
23481,Molex,1.32791691676156,103.68174669439476,Molex 23481
23489,Opp Molex,1.32759688194654,103.68048864270644,Opp Molex 23489
23491,Joo Koon Stn Exit B,1.32792408366339,103.67780864699095,Joo Koon Stn Exit B 23491
23499,Joo Koon Stn Exit A,1.32755092355685,103.67805103515067,Joo Koon Stn Exit A 23499
23501,Aft Pioneer Rd Nth,1.32453160328451,103.6958354332658,Aft Pioneer Rd Nth 23501
23509,Hoe Keng Motor,1.32468013030892,103.69561678727868,Hoe Keng Motor 23509
23519,Opp FairPrice Hub,1.32479352408668,103.6793660000188,Opp FairPrice Hub 23519
24009,Joo Koon Int,1.32697254709069,103.67839791240787,Joo Koon Int 24009
24011,M.C. Packaging Pte Ltd,1.32230923979842,103.6776263194759,M.C. Packaging Pte Ltd 24011
24019,Liang Huat Ind Cplx,1.32288721900936,103.6772820679354,Liang Huat Ind Cplx 24019
24021,Meritor Heavy Veh Systems,1.32185257239826,103.67087977752024,Meritor Heavy Veh Systems 24021
24029,Mazak S'pore,1.3224709639188,103.67132658072524,Mazak S'pore 24029
24041,Opp Pasir Laba Camp,1.33035313055333,103.67499316670492,Opp Pasir Laba Camp 24041
24049,Pasir Laba Camp,1.33094144977498,103.67379074701834,Pasir Laba Camp 24049
24089,Aft Gul Ave,1.31445576142607,103.67069001700852,Aft Gul Ave 24089
24129,Opp Yeow San Pte Ltd,1.32614180600676,103.66987144292962,Opp Yeow San Pte Ltd 24129
24139,Opp Toyo Ink,1.32733592150747,103.67193012673827,Opp Toyo Ink 24139
24149,Aft Joo Koon Cres,1.32754011144327,103.67466321781173,Aft Joo Koon Cres 24149
24159,Aft Joo Koon Rd,1.3268422233348,103.67664244711858,Aft Joo Koon Rd 24159
24169,Bef Gul Circle,1.31038624703757,103.66671593002816,Bef Gul Circle 24169
24179,Opp Hong Hock Hardware,1.30940312319597,103.66477126222463,Opp Hong Hock Hardware 24179
24189,Tai Sin Electric Cables,1.31116229073472,103.6619380811675,Tai Sin Electric Cables 24189
24199,JB Ind Pte Ltd,1.31308152323838,103.65993666344218,JB Ind Pte Ltd 24199
24209,Aft Gul Lane,1.31523764085318,103.6598693200974,Aft Gul Lane 24209
24219,Precision Products,1.31822701576325,103.66267154250264,Precision Products 24219
24229,Aft Gul St 3,1.31953778109044,103.66615348821183,Aft Gul St 3 24229
24239,Bef Gul St 1,1.31979166699662,103.6690038889689,Bef Gul St 1 24239
24249,Asiatic Agricultural Ind,1.3200141711372,103.67231073811736,Asiatic Agricultural Ind 24249
24259,DNV GL Laboratory,1.32022430366593,103.6756285744157,DNV GL Laboratory 24259
24269,Sing Huat Hardware,1.31796007151086,103.67660828077692,Sing Huat Hardware 24269
24279,Cameron Iron Works,1.31480277476233,103.6767463061916,Cameron Iron Works 24279
24289,Opp Keppel T&T,1.31240457504935,103.674858525035,Opp Keppel T&T 24289
24299,Aft Gul Way,1.31215859373419,103.67165007095036,Aft Gul Way 24299
24301,SNL Logistics Pte Ltd,1.31260985884793,103.66584908540896,SNL Logistics Pte Ltd 24301
24331,Opp Hong Hang Bldg,1.30854833300657,103.66868333299612,Opp Hong Hang Bldg 24331
24339,Hong Hang Bldg,1.30840666698801,103.66899333300486,Hong Hang Bldg 24339
24341,Opp Keppel Shipyard,1.29559624794118,103.67069575266142,Opp Keppel Shipyard 24341
24349,Keppel Shipyard,1.29557792043984,103.67091644467769,Keppel Shipyard 24349
24351,Opp S'pore Takada Ind,1.29811763317717,103.6683905248493,Opp S'pore Takada Ind 24351
24359,S'pore Takada Ind,1.29822556407932,103.66853349337184,S'pore Takada Ind 24359
24369,Dyna-Mac Engrg Svcs,1.30077687663858,103.66698326196403,Dyna-Mac Engrg Svcs 24369
24379,Opp Asia Ind Gases,1.30366277967429,103.66588434674222,Opp Asia Ind Gases 24379
24381,GE Keppel Energy Svcs,1.3068880559927,103.66532722200752,GE Keppel Energy Svcs 24381
24389,Opp GE Keppel Energy Svcs,1.30668431065764,103.66551563876423,Opp GE Keppel Energy Svcs 24389
24391,Chem-Solv Technologies,1.29859319877639,103.66447101698635,Chem-Solv Technologies 24391
24401,Opp Hoe Huat Engrg,1.30031638897466,103.6635577779868,Opp Hoe Huat Engrg 24401
24411,Gul Camp,1.30243777798816,103.661733611007,Gul Camp 24411
24421,Bef Pioneer Sector 1,1.30463277796645,103.65950611101404,Bef Pioneer Sector 1 24421
24431,Aft Pioneer Sector 2,1.30726611103183,103.6576999999841,Aft Pioneer Sector 2 24431
24441,GSK,1.30713498253909,103.66096830094708,GSK 24441
24451,Opp Cambridge Ind Trust,1.30599340060276,103.66378722029442,Opp Cambridge Ind Trust 24451
24461,Bef Nam Leong Co Pte Ltd,1.29723931495896,103.66626018526829,Bef Nam Leong Co Pte Ltd 24461
24489,Aft Joo Koon Way,1.32574395668742,103.67111058135131,Aft Joo Koon Way 24489
24499,Panasonic Ind Devices,1.32598700998791,103.67439565139507,Panasonic Ind Devices 24499
24501,Bef Tuas Flyover,1.32424896848956,103.66479791875364,Bef Tuas Flyover 24501
24509,Aft Tuas Flyover,1.32431478516881,103.66411622471436,Aft Tuas Flyover 24509
24511,GUL CIRCLE STN EXIT A,1.319446944,103.6608911,GUL CIRCLE STN EXIT A 24511
24519,GUL CIRCLE STN EXIT B,1.319071944,103.6598081,GUL CIRCLE STN EXIT B 24519
24521,Bef Tuas Ave 5,1.317440843177,103.65887836276522,Bef Tuas Ave 5 24521
24529,Aft Tuas Ave 5,1.31721248927948,103.65816649904158,Aft Tuas Ave 5 24529
24531,Utracon Corp,1.30622638897168,103.65688416696948,Utracon Corp 24531
24539,Dundee Marine,1.30492020241064,103.65548029310382,Dundee Marine 24539
24541,Opp Keppel Shipyard,1.30275657598845,103.6556555059217,Opp Keppel Shipyard 24541
24549,Keppel Shipyard,1.30273638896787,103.65543583300811,Keppel Shipyard 24549
24559,HQ 6 Div,1.30079305601761,103.6574800000263,HQ 6 Div 24559
24571,Seng Heng Engrg,1.32367555849755,103.6690675022225,Seng Heng Engrg 24571
24581,Opp ESAB,1.3249613889807,103.666995833031,Opp ESAB 24581
24599,Bef Joo Koon Way,1.32562284433654,103.66926644008088,Bef Joo Koon Way 24599
24601,Progress Galvanizing,1.31333999996651,103.65486500001047,Progress Galvanizing 24601
24609,Opp Progress Galvanizing,1.3134310373537,103.65475166394909,Opp Progress Galvanizing 24609
24611,Bef Marinteknik,1.31085562935941,103.65254056553094,Bef Marinteknik 24611
24619,Opp Marinteknik,1.31113971951498,103.65260471956782,Opp Marinteknik 24619
24621,Aft Ocean Tanker,1.30797138899535,103.6497794440252,Aft Ocean Tanker 24621
24629,Opp Ocean Tanker,1.3085113890287,103.65015527797974,Opp Ocean Tanker 24629
24631,Bef Benoi Rd,1.32056657586424,103.67824444522353,Bef Benoi Rd 24631
24639,Aft Benoi Rd,1.32041012800861,103.67791569301414,Aft Benoi Rd 24639
24641,W Atelier,1.31424000000651,103.66551388890647,W Atelier 24641
24651,Metall-Treat Ind,1.31490027800406,103.66882611097928,Metall-Treat Ind 24651
24671,Hiap Teck Metal Co,1.30957805602715,103.66123000003104,Hiap Teck Metal Co 24671
24679,Opp Hiap Teck Metal Co,1.30929393064989,103.6612549652211,Opp Hiap Teck Metal Co 24679
24681,Opp Jurong Insp Ctr,1.31200874931979,103.65863348470845,Opp Jurong Insp Ctr 24681
24689,Jurong Insp Ctr,1.31152436181276,103.65889588893424,Jurong Insp Ctr 24689
24691,Aft Tuas Rd,1.31344500002083,103.65712805602767,Aft Tuas Rd 24691
24699,Bef Tuas Rd,1.31345305601187,103.65690250002406,Bef Tuas Rd 24699
24701,TUAS CRES STN EXIT B,1.321386,103.649116,TUAS CRES STN EXIT B 24701
24709,TUAS CRES STN EXIT A,1.32089,103.649026,TUAS CRES STN EXIT A 24709
24711,TUAS WEST RD STN EXIT B,1.329871,103.639994,TUAS WEST RD STN EXIT B 24711
24719,TUAS WEST RD STN EXIT A,1.330051,103.639332,TUAS WEST RD STN EXIT A 24719
25009,Tuas Ter,1.34499542766088,103.63920357507963,Tuas Ter 25009
25059,Aft Tuas Sth Blvd,1.270007,103.61725,Aft Tuas Sth Blvd 25059
25061,Kyocera Chemical,1.32758500003063,103.64528750001706,Kyocera Chemical 25061
25069,Opp Kyocera Chemical,1.32751179627799,103.645518021535,Opp Kyocera Chemical 25069
25071,Opp Nissin Trspt,1.32958277801799,103.6432063890228,Opp Nissin Trspt 25071
25079,Nissin Trspt,1.32944568983893,103.64347153803386,Nissin Trspt 25079
25091,Aft Tuas Ave 7,1.33443305603142,103.64520499998908,Aft Tuas Ave 7 25091
25099,Opto-Pharm,1.33392910725335,103.6449493341418,Opto-Pharm 25099
25101,Opp SMC Mfg,1.33428472907824,103.64783751324052,Opp SMC Mfg 25101
25109,SMC Mfg,1.33462333299665,103.64732250002416,SMC Mfg 25109
25111,Aft Tuas Ave 10,1.33239888543698,103.64981610844488,Aft Tuas Ave 10 25111
25119,Bef Tuas Ave 10,1.33212638903277,103.64991694402984,Bef Tuas Ave 10 25119
25121,Aft Tuas Ave 8,1.33060763294167,103.651696635235,Aft Tuas Ave 8 25121
25129,Aft Tuas Ave 6,1.32994444402601,103.65226388900422,Aft Tuas Ave 6 25129
25151,Mercedes-Benz Logistics,1.32913728132074,103.65325524319752,Mercedes-Benz Logistics 25151
25161,Toyochem Ink,1.32735422944929,103.65510623174904,Toyochem Ink 25161
25169,Opp Galmon S'pore,1.32774944401039,103.6545005560022,Opp Galmon S'pore 25169
25171,Becton Dickinson Med,1.32546645428693,103.65711196773576,Becton Dickinson Med 25171
25179,Sew-Eurodrive,1.32529138897633,103.65711333297114,Sew-Eurodrive 25179
25181,MAN Diesel,1.32385296919519,103.65881324089644,MAN Diesel 25181
25189,Soon Heng Glass,1.32383972198116,103.65861666698132,Soon Heng Glass 25189
25191,Asiatic Engrg,1.32129979633271,103.6596844024505,Asiatic Engrg 25191
25199,Bestofire and Thermal,1.32109472197296,103.65933166702904,Bestofire and Thermal 25199
25201,Aft Tuas Rd,1.31926000001423,103.65870833303144,Aft Tuas Rd 25201
25209,Bef Tuas Rd,1.31930805600666,103.65880916700372,Bef Tuas Rd 25209
25219,Aft Tuas Ave 2,1.32877104016653,103.65692226679496,Aft Tuas Ave 2 25219
25221,Raffles Country Club,1.33470589408796,103.65153114279173,Raffles Country Club 25221
25229,Crown Beverage Cans S'pore,1.33371272924751,103.65176249706444,Crown Beverage Cans S'pore 25229
25231,Opp Asia-Pacific Brewery,1.3386589540233,103.64740272813636,Opp Asia-Pacific Brewery 25231
25239,Asia-Pacific Brewery,1.33740500002037,103.64795499996724,Asia-Pacific Brewery 25239
25249,Aft Tuas West Rd,1.33985499996776,103.64535166698558,Aft Tuas West Rd 25249
25259,Bef Tuas West Dr,1.34418817757747,103.6407070702331,Bef Tuas West Dr 25259
25269,Tuas Checkpt,1.34777150726774,103.63746924027154,Tuas Checkpt 25269
25321,YCH Distripk,1.31765021571604,103.6564457850944,YCH Distripk 25321
25329,Mapletree Logistics,1.31779138900842,103.65646249999054,Mapletree Logistics 25329
25331,Chugoku Marine Paints,1.32019777799085,103.6538130560161,Chugoku Marine Paints 25331
25339,Asia Steel Welded Mesh,1.32018179763398,103.65396888287178,Asia Steel Welded Mesh 25339
25341,ROCKWOOL,1.32194305599571,103.6519888889781,ROCKWOOL 25341
25349,Times Printers,1.32159222133434,103.65248184445196,Times Printers 25349
25351,Hart Engrg Pte Ltd,1.32396971577017,103.65303152916468,Hart Engrg Pte Ltd 25351
